%time,field.header.seq,field.header.stamp,field.header.frame_id,field.child_frame_id,field.pose.pose.position.x,field.pose.pose.position.y,field.pose.pose.position.z,field.pose.pose.orientation.x,field.pose.pose.orientation.y,field.pose.pose.orientation.z,field.pose.pose.orientation.w,field.pose.covariance0,field.pose.covariance1,field.pose.covariance2,field.pose.covariance3,field.pose.covariance4,field.pose.covariance5,field.pose.covariance6,field.pose.covariance7,field.pose.covariance8,field.pose.covariance9,field.pose.covariance10,field.pose.covariance11,field.pose.covariance12,field.pose.covariance13,field.pose.covariance14,field.pose.covariance15,field.pose.covariance16,field.pose.covariance17,field.pose.covariance18,field.pose.covariance19,field.pose.covariance20,field.pose.covariance21,field.pose.covariance22,field.pose.covariance23,field.pose.covariance24,field.pose.covariance25,field.pose.covariance26,field.pose.covariance27,field.pose.covariance28,field.pose.covariance29,field.pose.covariance30,field.pose.covariance31,field.pose.covariance32,field.pose.covariance33,field.pose.covariance34,field.pose.covariance35,field.twist.twist.linear.x,field.twist.twist.linear.y,field.twist.twist.linear.z,field.twist.twist.angular.x,field.twist.twist.angular.y,field.twist.twist.angular.z,field.twist.covariance0,field.twist.covariance1,field.twist.covariance2,field.twist.covariance3,field.twist.covariance4,field.twist.covariance5,field.twist.covariance6,field.twist.covariance7,field.twist.covariance8,field.twist.covariance9,field.twist.covariance10,field.twist.covariance11,field.twist.covariance12,field.twist.covariance13,field.twist.covariance14,field.twist.covariance15,field.twist.covariance16,field.twist.covariance17,field.twist.covariance18,field.twist.covariance19,field.twist.covariance20,field.twist.covariance21,field.twist.covariance22,field.twist.covariance23,field.twist.covariance24,field.twist.covariance25,field.twist.covariance26,field.twist.covariance27,field.twist.covariance28,field.twist.covariance29,field.twist.covariance30,field.twist.covariance31,field.twist.covariance32,field.twist.covariance33,field.twist.covariance34,field.twist.covariance35
1336386844327849865,0,1336386844327849865,/odom,/base_link,-0.00452683700224,-0.00424653099033,-0.00103763759344,0.000343483337498,0.00127434932484,-0.00182324262628,0.999997466916,0.1,0.0,0.0,0.0,0.0,0.0,0.0,0.1,0.0,0.0,0.0,0.0,0.0,0.0,0.1,0.0,0.0,0.0,0.0,0.0,0.0,0.17,0.0,0.0,0.0,0.0,0.0,0.0,0.17,0.0,0.0,0.0,0.0,0.0,0.0,0.17,0.0,0.0,0.0,0.0,0.0,0.0,0.05,0.0,0.0,0.0,0.0,0.0,0.0,0.05,0.0,0.0,0.0,0.0,0.0,0.0,0.05,0.0,0.0,0.0,0.0,0.0,0.0,0.09,0.0,0.0,0.0,0.0,0.0,0.0,0.09,0.0,0.0,0.0,0.0,0.0,0.0,0.09
1336386845617929935,1,1336386845617929935,/odom,/base_link,-0.0161075035756,-0.00532158128667,-0.00213313136803,0.00338298402528,-0.00278721408455,-0.00832924595715,0.999955704278,0.1,0.0,0.0,0.0,0.0,0.0,0.0,0.1,0.0,0.0,0.0,0.0,0.0,0.0,0.1,0.0,0.0,0.0,0.0,0.0,0.0,0.17,0.0,0.0,0.0,0.0,0.0,0.0,0.17,0.0,0.0,0.0,0.0,0.0,0.0,0.17,-0.00897141160733,-0.000866635457342,-0.000871455591226,0.0047365093064,-0.00629145273854,-0.0100782399899,0.05,0.0,0.0,0.0,0.0,0.0,0.0,0.05,0.0,0.0,0.0,0.0,0.0,0.0,0.05,0.0,0.0,0.0,0.0,0.0,0.0,0.09,0.0,0.0,0.0,0.0,0.0,0.0,0.09,0.0,0.0,0.0,0.0,0.0,0.0,0.09
1336386846014878035,2,1336386846014878035,/odom,/base_link,-0.0154751748065,-0.0017263662775,-0.00026461580163,0.00325435233728,-0.00540323697606,-0.00949862353509,0.999934993073,0.1,0.0,0.0,0.0,0.0,0.0,0.0,0.1,0.0,0.0,0.0,0.0,0.0,0.0,0.1,0.0,0.0,0.0,0.0,0.0,0.0,0.17,0.0,0.0,0.0,0.0,0.0,0.0,0.17,0.0,0.0,0.0,0.0,0.0,0.0,0.17,0.00146766124872,0.00911424853218,0.00463719643005,-0.000554359035526,-0.013205735079,-0.00584606094189,0.05,0.0,0.0,0.0,0.0,0.0,0.0,0.05,0.0,0.0,0.0,0.0,0.0,0.0,0.05,0.0,0.0,0.0,0.0,0.0,0.0,0.09,0.0,0.0,0.0,0.0,0.0,0.0,0.09,0.0,0.0,0.0,0.0,0.0,0.0,0.09
1336386846114115000,3,1336386846114115000,/odom,/base_link,-0.0209968874918,-0.00197432403135,-0.00141658353363,0.00288847472004,-0.00444402300264,-0.0102406013509,0.999933516519,0.1,0.0,0.0,0.0,0.0,0.0,0.0,0.1,0.0,0.0,0.0,0.0,0.0,0.0,0.1,0.0,0.0,0.0,0.0,0.0,0.0,0.17,0.0,0.0,0.0,0.0,0.0,0.0,0.17,0.0,0.0,0.0,0.0,0.0,0.0,0.17,-0.0557055694404,-0.00362989403525,-0.010986631877,-0.00763766653215,0.0192116698374,-0.014976042503,0.05,0.0,0.0,0.0,0.0,0.0,0.0,0.05,0.0,0.0,0.0,0.0,0.0,0.0,0.05,0.0,0.0,0.0,0.0,0.0,0.0,0.09,0.0,0.0,0.0,0.0,0.0,0.0,0.09,0.0,0.0,0.0,0.0,0.0,0.0,0.09
1336386846213351965,4,1336386846213351965,/odom,/base_link,-0.0189930707241,-0.000991611682483,-0.00102648701649,0.00293168846425,-0.00526307228429,-0.0110232475243,0.99992109353,0.1,0.0,0.0,0.0,0.0,0.0,0.0,0.1,0.0,0.0,0.0,0.0,0.0,0.0,0.1,0.0,0.0,0.0,0.0,0.0,0.0,0.17,0.0,0.0,0.0,0.0,0.0,0.0,0.17,0.0,0.0,0.0,0.0,0.0,0.0,0.17,0.0200188529041,0.0103365229492,0.00369378453438,0.000970529975441,-0.0165436000845,-0.0157309882688,0.05,0.0,0.0,0.0,0.0,0.0,0.0,0.05,0.0,0.0,0.0,0.0,0.0,0.0,0.05,0.0,0.0,0.0,0.0,0.0,0.0,0.09,0.0,0.0,0.0,0.0,0.0,0.0,0.09,0.0,0.0,0.0,0.0,0.0,0.0,0.09
1336386846312588930,5,1336386846312588930,/odom,/base_link,-0.0240198973371,-0.00265523150366,-0.000995797202242,0.00202635873763,-0.00436339326105,-0.0118490460415,0.999918224045,0.1,0.0,0.0,0.0,0.0,0.0,0.0,0.1,0.0,0.0,0.0,0.0,0.0,0.0,0.1,0.0,0.0,0.0,0.0,0.0,0.0,0.17,0.0,0.0,0.0,0.0,0.0,0.0,0.17,0.0,0.0,0.0,0.0,0.0,0.0,0.17,-0.0502663500584,-0.0178730120429,0.000942008281801,-0.0185316802832,0.0178802851235,-0.0165994207399,0.05,0.0,0.0,0.0,0.0,0.0,0.0,0.05,0.0,0.0,0.0,0.0,0.0,0.0,0.05,0.0,0.0,0.0,0.0,0.0,0.0,0.09,0.0,0.0,0.0,0.0,0.0,0.0,0.09,0.0,0.0,0.0,0.0,0.0,0.0,0.09
1336386846411825895,6,1336386846411825895,/odom,/base_link,-0.0264008203046,0.00260815144363,-0.00181724949334,0.0027605192534,-0.00384847412705,-0.0127634436267,0.999907327349,0.1,0.0,0.0,0.0,0.0,0.0,0.0,0.1,0.0,0.0,0.0,0.0,0.0,0.0,0.1,0.0,0.0,0.0,0.0,0.0,0.0,0.17,0.0,0.0,0.0,0.0,0.0,0.0,0.17,0.0,0.0,0.0,0.0,0.0,0.0,0.17,-0.0253142300156,0.0524207019887,-0.00827623888554,0.014591973482,0.0105137400416,-0.0185152582608,0.05,0.0,0.0,0.0,0.0,0.0,0.0,0.05,0.0,0.0,0.0,0.0,0.0,0.0,0.05,0.0,0.0,0.0,0.0,0.0,0.0,0.09,0.0,0.0,0.0,0.0,0.0,0.0,0.09,0.0,0.0,0.0,0.0,0.0,0.0,0.09
1336386846511062860,7,1336386846511062860,/odom,/base_link,-0.0264007928272,-0.00247623355753,-0.000474896413935,0.00121093978538,-0.00393316959163,-0.0135394633356,0.999899868354,0.1,0.0,0.0,0.0,0.0,0.0,0.0,0.1,0.0,0.0,0.0,0.0,0.0,0.0,0.1,0.0,0.0,0.0,0.0,0.0,0.0,0.17,0.0,0.0,0.0,0.0,0.0,0.0,0.17,0.0,0.0,0.0,0.0,0.0,0.0,0.17,0.00141226070134,-0.0511413049838,0.0138039453438,-0.0312649936054,-0.0021491298615,-0.0155153084715,0.05,0.0,0.0,0.0,0.0,0.0,0.0,0.05,0.0,0.0,0.0,0.0,0.0,0.0,0.05,0.0,0.0,0.0,0.0,0.0,0.0,0.09,0.0,0.0,0.0,0.0,0.0,0.0,0.09,0.0,0.0,0.0,0.0,0.0,0.0,0.09
1336386846610299826,8,1336386846610299826,/odom,/base_link,-0.0240117107687,0.00190856676733,-0.000577622865284,0.00176814097638,-0.00444377678257,-0.0143237452487,0.999885971923,0.1,0.0,0.0,0.0,0.0,0.0,0.0,0.1,0.0,0.0,0.0,0.0,0.0,0.0,0.1,0.0,0.0,0.0,0.0,0.0,0.0,0.17,0.0,0.0,0.0,0.0,0.0,0.0,0.17,0.0,0.0,0.0,0.0,0.0,0.0,0.17,0.0228600502059,0.0448178220511,-0.00132757129459,0.0113060886962,-0.0101578343852,-0.0158401646325,0.05,0.0,0.0,0.0,0.0,0.0,0.0,0.05,0.0,0.0,0.0,0.0,0.0,0.0,0.05,0.0,0.0,0.0,0.0,0.0,0.0,0.09,0.0,0.0,0.0,0.0,0.0,0.0,0.09,0.0,0.0,0.0,0.0,0.0,0.0,0.09
1336386846709537029,9,1336386846709537029,/odom,/base_link,-0.0245641446676,0.00487229995808,-0.000613068228656,0.00208115534294,-0.00425155238834,-0.0150533809887,0.999875486656,0.1,0.0,0.0,0.0,0.0,0.0,0.0,0.1,0.0,0.0,0.0,0.0,0.0,0.0,0.1,0.0,0.0,0.0,0.0,0.0,0.0,0.17,0.0,0.0,0.0,0.0,0.0,0.0,0.17,0.0,0.0,0.0,0.0,0.0,0.0,0.17,-0.00642338737919,0.0296920230744,-0.000409207848629,0.00618722670165,0.00393701829718,-0.0147411179357,0.05,0.0,0.0,0.0,0.0,0.0,0.0,0.05,0.0,0.0,0.0,0.0,0.0,0.0,0.05,0.0,0.0,0.0,0.0,0.0,0.0,0.09,0.0,0.0,0.0,0.0,0.0,0.0,0.09,0.0,0.0,0.0,0.0,0.0,0.0,0.09
1336386846808773994,10,1336386846808773994,/odom,/base_link,-0.0274187219793,0.00544102279283,-0.00128190415828,0.00199482509029,-0.00311573639418,-0.0154607599278,0.999873630896,0.1,0.0,0.0,0.0,0.0,0.0,0.0,0.1,0.0,0.0,0.0,0.0,0.0,0.0,0.1,0.0,0.0,0.0,0.0,0.0,0.0,0.17,0.0,0.0,0.0,0.0,0.0,0.0,0.17,0.0,0.0,0.0,0.0,0.0,0.0,0.17,-0.0289806857539,0.00483398627959,-0.00651623575572,-0.00211907993559,0.0228447046017,-0.00825001091601,0.05,0.0,0.0,0.0,0.0,0.0,0.0,0.05,0.0,0.0,0.0,0.0,0.0,0.0,0.05,0.0,0.0,0.0,0.0,0.0,0.0,0.09,0.0,0.0,0.0,0.0,0.0,0.0,0.09,0.0,0.0,0.0,0.0,0.0,0.0,0.09
1336386846908010960,11,1336386846908010960,/odom,/base_link,-0.0253675037728,0.00248340067614,-0.00067106336342,0.000842072365853,-0.0033173824902,-0.0156877370367,0.999871082087,0.1,0.0,0.0,0.0,0.0,0.0,0.0,0.1,0.0,0.0,0.0,0.0,0.0,0.0,0.1,0.0,0.0,0.0,0.0,0.0,0.0,0.17,0.0,0.0,0.0,0.0,0.0,0.0,0.17,0.0,0.0,0.0,0.0,0.0,0.0,0.17,0.0216194176277,-0.0291251928464,0.00614116409407,-0.0231807135063,-0.00443189326128,-0.00449417131516,0.05,0.0,0.0,0.0,0.0,0.0,0.0,0.05,0.0,0.0,0.0,0.0,0.0,0.0,0.05,0.0,0.0,0.0,0.0,0.0,0.0,0.09,0.0,0.0,0.0,0.0,0.0,0.0,0.09,0.0,0.0,0.0,0.0,0.0,0.0,0.09
1336386847007247925,12,1336386847007247925,/odom,/base_link,-0.0235078229884,0.000602474618044,0.000387489064149,0.000187923417546,-0.00338511481552,-0.0166337322297,0.999855901935,0.1,0.0,0.0,0.0,0.0,0.0,0.0,0.1,0.0,0.0,0.0,0.0,0.0,0.0,0.1,0.0,0.0,0.0,0.0,0.0,0.0,0.17,0.0,0.0,0.0,0.0,0.0,0.0,0.17,0.0,0.0,0.0,0.0,0.0,0.0,0.17,0.0193953605899,-0.0183376670276,0.0105717975949,-0.0132234523731,-0.00158877656753,-0.0190228407448,0.05,0.0,0.0,0.0,0.0,0.0,0.0,0.05,0.0,0.0,0.0,0.0,0.0,0.0,0.05,0.0,0.0,0.0,0.0,0.0,0.0,0.09,0.0,0.0,0.0,0.0,0.0,0.0,0.09,0.0,0.0,0.0,0.0,0.0,0.0,0.09
1336386847106483936,13,1336386847106483936,/odom,/base_link,-0.025638684915,0.00606014278625,-0.00087203857078,0.00142946945608,-0.00247835132832,-0.017335261872,0.99984563963,0.1,0.0,0.0,0.0,0.0,0.0,0.0,0.1,0.0,0.0,0.0,0.0,0.0,0.0,0.1,0.0,0.0,0.0,0.0,0.0,0.0,0.17,0.0,0.0,0.0,0.0,0.0,0.0,0.17,0.0,0.0,0.0,0.0,0.0,0.0,0.17,-0.0233755436244,0.0542460045741,-0.012560937719,0.0246666913247,0.0186851169795,-0.0142281569068,0.05,0.0,0.0,0.0,0.0,0.0,0.0,0.05,0.0,0.0,0.0,0.0,0.0,0.0,0.05,0.0,0.0,0.0,0.0,0.0,0.0,0.09,0.0,0.0,0.0,0.0,0.0,0.0,0.09,0.0,0.0,0.0,0.0,0.0,0.0,0.09
1336386847205720901,14,1336386847205720901,/odom,/base_link,-0.0237484624068,0.00720684441973,-0.00106427500378,0.00171138206856,-0.00245609221579,-0.0176494270523,0.999839755414,0.1,0.0,0.0,0.0,0.0,0.0,0.0,0.1,0.0,0.0,0.0,0.0,0.0,0.0,0.1,0.0,0.0,0.0,0.0,0.0,0.0,0.17,0.0,0.0,0.0,0.0,0.0,0.0,0.17,0.0,0.0,0.0,0.0,0.0,0.0,0.17,0.0186257338958,0.0122026426683,-0.00206449384576,0.00565742889813,0.000537683385853,-0.00634741694775,0.05,0.0,0.0,0.0,0.0,0.0,0.0,0.05,0.0,0.0,0.0,0.0,0.0,0.0,0.05,0.0,0.0,0.0,0.0,0.0,0.0,0.09,0.0,0.0,0.0,0.0,0.0,0.0,0.09,0.0,0.0,0.0,0.0,0.0,0.0,0.09
1336386847304958820,15,1336386847304958820,/odom,/base_link,-0.0277850498769,0.0083194822588,-0.00158524294193,0.00195837857021,-0.00110315766562,-0.0188242815702,0.99982028096,0.1,0.0,0.0,0.0,0.0,0.0,0.0,0.1,0.0,0.0,0.0,0.0,0.0,0.0,0.1,0.0,0.0,0.0,0.0,0.0,0.0,0.17,0.0,0.0,0.0,0.0,0.0,0.0,0.17,0.0,0.0,0.0,0.0,0.0,0.0,0.17,-0.0410712871443,0.00975111103155,-0.0050847568747,0.00443834980961,0.0273085004819,-0.0237395675989,0.05,0.0,0.0,0.0,0.0,0.0,0.0,0.05,0.0,0.0,0.0,0.0,0.0,0.0,0.05,0.0,0.0,0.0,0.0,0.0,0.0,0.09,0.0,0.0,0.0,0.0,0.0,0.0,0.09,0.0,0.0,0.0,0.0,0.0,0.0,0.09
1336386847404196024,16,1336386847404196024,/odom,/base_link,-0.0295722226761,0.00566047965391,-0.001433723689,0.00130782947325,-0.000233506338529,-0.0192187251771,0.99981442061,0.1,0.0,0.0,0.0,0.0,0.0,0.0,0.1,0.0,0.0,0.0,0.0,0.0,0.0,0.1,0.0,0.0,0.0,0.0,0.0,0.0,0.17,0.0,0.0,0.0,0.0,0.0,0.0,0.17,0.0,0.0,0.0,0.0,0.0,0.0,0.17,-0.0169843325531,-0.0274469923409,0.00167169371022,-0.0134471049292,0.0172610701648,-0.00797016754117,0.05,0.0,0.0,0.0,0.0,0.0,0.0,0.05,0.0,0.0,0.0,0.0,0.0,0.0,0.05,0.0,0.0,0.0,0.0,0.0,0.0,0.09,0.0,0.0,0.0,0.0,0.0,0.0,0.09,0.0,0.0,0.0,0.0,0.0,0.0,0.09
1336386847503432035,17,1336386847503432035,/odom,/base_link,-0.0279648808018,0.00962813997407,-0.00290365071521,0.00245774989623,-0.000137144986673,-0.0199101940067,0.999798742163,0.1,0.0,0.0,0.0,0.0,0.0,0.0,0.1,0.0,0.0,0.0,0.0,0.0,0.0,0.1,0.0,0.0,0.0,0.0,0.0,0.0,0.17,0.0,0.0,0.0,0.0,0.0,0.0,0.17,0.0,0.0,0.0,0.0,0.0,0.0,0.17,0.0146424769438,0.0405359716753,-0.0149249616323,0.0231310077088,0.0023688079297,-0.013947287213,0.05,0.0,0.0,0.0,0.0,0.0,0.0,0.05,0.0,0.0,0.0,0.0,0.0,0.0,0.05,0.0,0.0,0.0,0.0,0.0,0.0,0.09,0.0,0.0,0.0,0.0,0.0,0.0,0.09,0.0,0.0,0.0,0.0,0.0,0.0,0.09
1336386847602669954,18,1336386847602669954,/odom,/base_link,-0.0195634232673,0.0112371994641,-0.00343913990127,0.00311988340594,-0.00181484221432,-0.0205924009092,0.999781438966,0.1,0.0,0.0,0.0,0.0,0.0,0.0,0.1,0.0,0.0,0.0,0.0,0.0,0.0,0.1,0.0,0.0,0.0,0.0,0.0,0.0,0.17,0.0,0.0,0.0,0.0,0.0,0.0,0.17,0.0,0.0,0.0,0.0,0.0,0.0,0.17,0.0839461403068,0.0195450093065,-0.00550704675036,0.0140138554114,-0.0335729827381,-0.0136718300503,0.05,0.0,0.0,0.0,0.0,0.0,0.0,0.05,0.0,0.0,0.0,0.0,0.0,0.0,0.05,0.0,0.0,0.0,0.0,0.0,0.0,0.09,0.0,0.0,0.0,0.0,0.0,0.0,0.09,0.0,0.0,0.0,0.0,0.0,0.0,0.09
1336386847701905966,19,1336386847701905966,/odom,/base_link,-0.0250633416145,0.00576595867612,-0.00238541858992,0.00206931790985,-0.00035290210072,-0.0215227462267,0.999766155047,0.1,0.0,0.0,0.0,0.0,0.0,0.0,0.1,0.0,0.0,0.0,0.0,0.0,0.0,0.1,0.0,0.0,0.0,0.0,0.0,0.0,0.17,0.0,0.0,0.0,0.0,0.0,0.0,0.17,0.0,0.0,0.0,0.0,0.0,0.0,0.17,-0.0530672730837,-0.0573001977528,0.0111661280722,-0.0218082570041,0.0289624214515,-0.0188059113788,0.05,0.0,0.0,0.0,0.0,0.0,0.0,0.05,0.0,0.0,0.0,0.0,0.0,0.0,0.05,0.0,0.0,0.0,0.0,0.0,0.0,0.09,0.0,0.0,0.0,0.0,0.0,0.0,0.09,0.0,0.0,0.0,0.0,0.0,0.0,0.09
1336386847801142931,20,1336386847801142931,/odom,/base_link,-0.0284867482226,0.00580269397436,-0.00340583267352,0.00223099268329,0.000678324132445,-0.0220404787948,0.999754359752,0.1,0.0,0.0,0.0,0.0,0.0,0.0,0.1,0.0,0.0,0.0,0.0,0.0,0.0,0.1,0.0,0.0,0.0,0.0,0.0,0.0,0.17,0.0,0.0,0.0,0.0,0.0,0.0,0.17,0.0,0.0,0.0,0.0,0.0,0.0,0.17,-0.0344875948141,-0.00115742605711,-0.0102566206237,0.00280709666836,0.0208267048315,-0.0104811039726,0.05,0.0,0.0,0.0,0.0,0.0,0.0,0.05,0.0,0.0,0.0,0.0,0.0,0.0,0.05,0.0,0.0,0.0,0.0,0.0,0.0,0.09,0.0,0.0,0.0,0.0,0.0,0.0,0.09,0.0,0.0,0.0,0.0,0.0,0.0,0.09
1336386847900379896,21,1336386847900379896,/odom,/base_link,-0.0343619962511,0.010151855926,-0.00574518380974,0.00360537189169,0.00207337183779,-0.0229208238331,0.999728632309,0.1,0.0,0.0,0.0,0.0,0.0,0.0,0.1,0.0,0.0,0.0,0.0,0.0,0.0,0.1,0.0,0.0,0.0,0.0,0.0,0.0,0.17,0.0,0.0,0.0,0.0,0.0,0.0,0.17,0.0,0.0,0.0,0.0,0.0,0.0,0.17,-0.0610436488277,0.0410692406874,-0.0238444188735,0.0270856666358,0.0286798674877,-0.0177933007205,0.05,0.0,0.0,0.0,0.0,0.0,0.0,0.05,0.0,0.0,0.0,0.0,0.0,0.0,0.05,0.0,0.0,0.0,0.0,0.0,0.0,0.09,0.0,0.0,0.0,0.0,0.0,0.0,0.09,0.0,0.0,0.0,0.0,0.0,0.0,0.09
1336386847999616861,22,1336386847999616861,/odom,/base_link,-0.0405045124683,0.00166079863256,-0.00649682199984,0.00199046176099,0.00340441892606,-0.0238220014904,0.999708437615,0.1,0.0,0.0,0.0,0.0,0.0,0.0,0.1,0.0,0.0,0.0,0.0,0.0,0.0,0.1,0.0,0.0,0.0,0.0,0.0,0.0,0.17,0.0,0.0,0.0,0.0,0.0,0.0,0.17,0.0,0.0,0.0,0.0,0.0,0.0,0.17,-0.0578792144052,-0.0883628413868,-0.00719534532601,-0.0331134820205,0.0260077426131,-0.0183307500754,0.05,0.0,0.0,0.0,0.0,0.0,0.0,0.05,0.0,0.0,0.0,0.0,0.0,0.0,0.05,0.0,0.0,0.0,0.0,0.0,0.0,0.09,0.0,0.0,0.0,0.0,0.0,0.0,0.09,0.0,0.0,0.0,0.0,0.0,0.0,0.09
1336386848098853827,23,1336386848098853827,/odom,/base_link,-0.0377266519934,0.00159690294334,-0.00581559892795,0.00226810868002,0.00265143598504,-0.0241790926027,0.999701553991,0.1,0.0,0.0,0.0,0.0,0.0,0.0,0.1,0.0,0.0,0.0,0.0,0.0,0.0,0.1,0.0,0.0,0.0,0.0,0.0,0.0,0.17,0.0,0.0,0.0,0.0,0.0,0.0,0.17,0.0,0.0,0.0,0.0,0.0,0.0,0.17,0.0279430568756,0.000716722853348,0.00705494754064,0.0059802907694,-0.0150515833329,-0.00714868721577,0.05,0.0,0.0,0.0,0.0,0.0,0.0,0.05,0.0,0.0,0.0,0.0,0.0,0.0,0.05,0.0,0.0,0.0,0.0,0.0,0.0,0.09,0.0,0.0,0.0,0.0,0.0,0.0,0.09,0.0,0.0,0.0,0.0,0.0,0.0,0.09
1336386848198091030,24,1336386848198091030,/odom,/base_link,-0.0396172446151,0.0079223375201,-0.0076593261642,0.00441077656572,0.00282693633429,-0.0244292621674,0.999687833592,0.1,0.0,0.0,0.0,0.0,0.0,0.0,0.1,0.0,0.0,0.0,0.0,0.0,0.0,0.1,0.0,0.0,0.0,0.0,0.0,0.0,0.17,0.0,0.0,0.0,0.0,0.0,0.0,0.17,0.0,0.0,0.0,0.0,0.0,0.0,0.17,-0.0220088655997,0.0626622629108,-0.0189746740453,0.0430983745767,0.00456935250617,-0.00494056141251,0.05,0.0,0.0,0.0,0.0,0.0,0.0,0.05,0.0,0.0,0.0,0.0,0.0,0.0,0.05,0.0,0.0,0.0,0.0,0.0,0.0,0.09,0.0,0.0,0.0,0.0,0.0,0.0,0.09,0.0,0.0,0.0,0.0,0.0,0.0,0.09
1336386848297327995,25,1336386848297327995,/odom,/base_link,-0.0382366656509,0.00760247139799,-0.009830231523,0.00474039088471,0.00214520616383,-0.0248702247072,0.999677147237,0.1,0.0,0.0,0.0,0.0,0.0,0.0,0.1,0.0,0.0,0.0,0.0,0.0,0.0,0.1,0.0,0.0,0.0,0.0,0.0,0.0,0.17,0.0,0.0,0.0,0.0,0.0,0.0,0.17,0.0,0.0,0.0,0.0,0.0,0.0,0.17,0.0141808289986,-0.00272932975467,-0.0217702699341,0.00700261927903,-0.0136114599359,-0.00881016955215,0.05,0.0,0.0,0.0,0.0,0.0,0.0,0.05,0.0,0.0,0.0,0.0,0.0,0.0,0.05,0.0,0.0,0.0,0.0,0.0,0.0,0.09,0.0,0.0,0.0,0.0,0.0,0.0,0.09,0.0,0.0,0.0,0.0,0.0,0.0,0.09
1336386848396564960,26,1336386848396564960,/odom,/base_link,-0.0419964453392,0.00632506057857,-0.0106463450196,0.00495424247753,0.00269435564152,-0.0254730719467,0.999659601332,0.1,0.0,0.0,0.0,0.0,0.0,0.0,0.1,0.0,0.0,0.0,0.0,0.0,0.0,0.1,0.0,0.0,0.0,0.0,0.0,0.0,0.17,0.0,0.0,0.0,0.0,0.0,0.0,0.17,0.0,0.0,0.0,0.0,0.0,0.0,0.17,-0.037162651714,-0.0148175653601,-0.00825363151084,0.00406101716786,0.0111142192589,-0.0121977426116,0.05,0.0,0.0,0.0,0.0,0.0,0.0,0.05,0.0,0.0,0.0,0.0,0.0,0.0,0.05,0.0,0.0,0.0,0.0,0.0,0.0,0.09,0.0,0.0,0.0,0.0,0.0,0.0,0.09,0.0,0.0,0.0,0.0,0.0,0.0,0.09
1336386848495801926,27,1336386848495801926,/odom,/base_link,-0.0377910983753,0.00474406706497,-0.0108717415397,0.00521346174724,0.00123480133982,-0.025425222156,0.999662369583,0.1,0.0,0.0,0.0,0.0,0.0,0.0,0.1,0.0,0.0,0.0,0.0,0.0,0.0,0.1,0.0,0.0,0.0,0.0,0.0,0.0,0.17,0.0,0.0,0.0,0.0,0.0,0.0,0.17,0.0,0.0,0.0,0.0,0.0,0.0,0.17,0.0431449644265,-0.0137728943471,-0.00189357852569,0.00596890141112,-0.0292678293266,0.00112525515784,0.05,0.0,0.0,0.0,0.0,0.0,0.0,0.05,0.0,0.0,0.0,0.0,0.0,0.0,0.05,0.0,0.0,0.0,0.0,0.0,0.0,0.09,0.0,0.0,0.0,0.0,0.0,0.0,0.09,0.0,0.0,0.0,0.0,0.0,0.0,0.09
1336386848595038891,28,1336386848595038891,/odom,/base_link,-0.0398315282439,0.00142955070461,-0.0119914630492,0.00499812089032,0.00116784969247,-0.0253479731893,0.999665511644,0.1,0.0,0.0,0.0,0.0,0.0,0.0,0.1,0.0,0.0,0.0,0.0,0.0,0.0,0.1,0.0,0.0,0.0,0.0,0.0,0.0,0.17,0.0,0.0,0.0,0.0,0.0,0.0,0.17,0.0,0.0,0.0,0.0,0.0,0.0,0.17,-0.0188062923859,-0.0345173787138,-0.010977733803,-0.00430641265362,-0.00145117855049,0.00155961883733,0.05,0.0,0.0,0.0,0.0,0.0,0.0,0.05,0.0,0.0,0.0,0.0,0.0,0.0,0.05,0.0,0.0,0.0,0.0,0.0,0.0,0.09,0.0,0.0,0.0,0.0,0.0,0.0,0.09,0.0,0.0,0.0,0.0,0.0,0.0,0.09
1336386848694274902,29,1336386848694274902,/odom,/base_link,-0.0408177558386,0.00293292999073,-0.0136581273584,0.00589989800746,0.000977616012894,-0.025484470212,0.999657329913,0.1,0.0,0.0,0.0,0.0,0.0,0.0,0.1,0.0,0.0,0.0,0.0,0.0,0.0,0.1,0.0,0.0,0.0,0.0,0.0,0.0,0.17,0.0,0.0,0.0,0.0,0.0,0.0,0.17,0.0,0.0,0.0,0.0,0.0,0.0,0.17,-0.0106495203991,0.0144586989651,-0.0169670411516,0.0182695363247,-0.00338555576026,-0.00271382985493,0.05,0.0,0.0,0.0,0.0,0.0,0.0,0.05,0.0,0.0,0.0,0.0,0.0,0.0,0.05,0.0,0.0,0.0,0.0,0.0,0.0,0.09,0.0,0.0,0.0,0.0,0.0,0.0,0.09,0.0,0.0,0.0,0.0,0.0,0.0,0.09
1336386848793512821,30,1336386848793512821,/odom,/base_link,-0.03870054048,-0.00172488227533,-0.0118992497698,0.00507617756105,-8.20581345326e-05,-0.0254572512053,0.999663020247,0.1,0.0,0.0,0.0,0.0,0.0,0.0,0.1,0.0,0.0,0.0,0.0,0.0,0.0,0.1,0.0,0.0,0.0,0.0,0.0,0.0,0.17,0.0,0.0,0.0,0.0,0.0,0.0,0.17,0.0,0.0,0.0,0.0,0.0,0.0,0.17,0.0236579240377,-0.0455761126888,0.0183138445915,-0.0160521981357,-0.0217688645007,0.000661065688071,0.05,0.0,0.0,0.0,0.0,0.0,0.0,0.05,0.0,0.0,0.0,0.0,0.0,0.0,0.05,0.0,0.0,0.0,0.0,0.0,0.0,0.09,0.0,0.0,0.0,0.0,0.0,0.0,0.09,0.0,0.0,0.0,0.0,0.0,0.0,0.09
1336386848892748833,31,1336386848892748833,/odom,/base_link,-0.0457918621679,-0.00197086276673,-0.0155653791005,0.00539688854273,0.00108261844727,-0.0249580119269,0.999673346235,0.1,0.0,0.0,0.0,0.0,0.0,0.0,0.1,0.0,0.0,0.0,0.0,0.0,0.0,0.1,0.0,0.0,0.0,0.0,0.0,0.0,0.17,0.0,0.0,0.0,0.0,0.0,0.0,0.17,0.0,0.0,0.0,0.0,0.0,0.0,0.17,-0.071236883424,-0.00648751534728,-0.036886294524,0.00586363904284,0.0236805956803,0.00994388276316,0.05,0.0,0.0,0.0,0.0,0.0,0.0,0.05,0.0,0.0,0.0,0.0,0.0,0.0,0.05,0.0,0.0,0.0,0.0,0.0,0.0,0.09,0.0,0.0,0.0,0.0,0.0,0.0,0.09,0.0,0.0,0.0,0.0,0.0,0.0,0.09
1336386848991986990,32,1336386848991986990,/odom,/base_link,-0.0484648424973,0.00156461664799,-0.0193582094329,0.00665041435713,0.00130644953373,-0.0249746617207,0.999665109649,0.1,0.0,0.0,0.0,0.0,0.0,0.0,0.1,0.0,0.0,0.0,0.0,0.0,0.0,0.1,0.0,0.0,0.0,0.0,0.0,0.0,0.17,0.0,0.0,0.0,0.0,0.0,0.0,0.17,0.0,0.0,0.0,0.0,0.0,0.0,0.17,-0.0285856852145,0.0338250549838,-0.0386545463027,0.0251434089225,0.00513839877825,-0.000336580811934,0.05,0.0,0.0,0.0,0.0,0.0,0.0,0.05,0.0,0.0,0.0,0.0,0.0,0.0,0.05,0.0,0.0,0.0,0.0,0.0,0.0,0.09,0.0,0.0,0.0,0.0,0.0,0.0,0.09,0.0,0.0,0.0,0.0,0.0,0.0,0.09
1336386849091223001,33,1336386849091223001,/odom,/base_link,-0.0483036809374,0.000652275541994,-0.0196558580779,0.00673136736038,0.000790737356915,-0.0244364278108,0.999678410502,0.1,0.0,0.0,0.0,0.0,0.0,0.0,0.1,0.0,0.0,0.0,0.0,0.0,0.0,0.1,0.0,0.0,0.0,0.0,0.0,0.0,0.17,0.0,0.0,0.0,0.0,0.0,0.0,0.17,0.0,0.0,0.0,0.0,0.0,0.0,0.17,0.00208972538727,-0.00913993305265,-0.00287258133084,0.00187460189488,-0.0102776328257,0.0109218690054,0.05,0.0,0.0,0.0,0.0,0.0,0.0,0.05,0.0,0.0,0.0,0.0,0.0,0.0,0.05,0.0,0.0,0.0,0.0,0.0,0.0,0.09,0.0,0.0,0.0,0.0,0.0,0.0,0.09,0.0,0.0,0.0,0.0,0.0,0.0,0.09
1336386849190460920,34,1336386849190460920,/odom,/base_link,-0.0418267970037,0.00105231790545,-0.0181131695683,0.0069386610642,-0.00135597693444,-0.0239496426215,0.999688166844,0.1,0.0,0.0,0.0,0.0,0.0,0.0,0.1,0.0,0.0,0.0,0.0,0.0,0.0,0.1,0.0,0.0,0.0,0.0,0.0,0.0,0.17,0.0,0.0,0.0,0.0,0.0,0.0,0.17,0.0,0.0,0.0,0.0,0.0,0.0,0.17,0.0649615951126,0.00742399509185,0.0155712288492,0.00522450874046,-0.0430821436182,0.0101066549045,0.05,0.0,0.0,0.0,0.0,0.0,0.0,0.05,0.0,0.0,0.0,0.0,0.0,0.0,0.05,0.0,0.0,0.0,0.0,0.0,0.0,0.09,0.0,0.0,0.0,0.0,0.0,0.0,0.09,0.0,0.0,0.0,0.0,0.0,0.0,0.09
1336386849289696932,35,1336386849289696932,/odom,/base_link,-0.0467370703162,-0.00466241954919,-0.0185646687819,0.00554510881208,-0.000530584099788,-0.023741373521,0.999702614497,0.1,0.0,0.0,0.0,0.0,0.0,0.0,0.1,0.0,0.0,0.0,0.0,0.0,0.0,0.1,0.0,0.0,0.0,0.0,0.0,0.0,0.17,0.0,0.0,0.0,0.0,0.0,0.0,0.17,0.0,0.0,0.0,0.0,0.0,0.0,0.17,-0.0466760224222,-0.0599475643473,-0.00360353542347,-0.0284716001469,0.0159866445124,0.00412577575109,0.05,0.0,0.0,0.0,0.0,0.0,0.0,0.05,0.0,0.0,0.0,0.0,0.0,0.0,0.05,0.0,0.0,0.0,0.0,0.0,0.0,0.09,0.0,0.0,0.0,0.0,0.0,0.0,0.09,0.0,0.0,0.0,0.0,0.0,0.0,0.09
1336386849388933897,36,1336386849388933897,/odom,/base_link,-0.0456321529395,-0.00359833913438,-0.018460463054,0.00580703602438,-0.00109304070133,-0.0232536259252,0.999712134805,0.1,0.0,0.0,0.0,0.0,0.0,0.0,0.1,0.0,0.0,0.0,0.0,0.0,0.0,0.1,0.0,0.0,0.0,0.0,0.0,0.0,0.17,0.0,0.0,0.0,0.0,0.0,0.0,0.17,0.0,0.0,0.0,0.0,0.0,0.0,0.17,0.0106133595258,0.011249999313,0.00091665055527,0.00555052927681,-0.0111523204276,0.00989164736311,0.05,0.0,0.0,0.0,0.0,0.0,0.0,0.05,0.0,0.0,0.0,0.0,0.0,0.0,0.05,0.0,0.0,0.0,0.0,0.0,0.0,0.09,0.0,0.0,0.0,0.0,0.0,0.0,0.09,0.0,0.0,0.0,0.0,0.0,0.0,0.09
1336386849488170862,37,1336386849488170862,/odom,/base_link,-0.0447107838426,-0.00369942250128,-0.0178728685819,0.00573032001827,-0.0016833951128,-0.0230247945148,0.999717054196,0.1,0.0,0.0,0.0,0.0,0.0,0.0,0.1,0.0,0.0,0.0,0.0,0.0,0.0,0.1,0.0,0.0,0.0,0.0,0.0,0.0,0.17,0.0,0.0,0.0,0.0,0.0,0.0,0.17,0.0,0.0,0.0,0.0,0.0,0.0,0.17,0.00933318524369,-0.000516830080384,0.00590968809146,-0.00126453869061,-0.0119035124669,0.00468357754057,0.05,0.0,0.0,0.0,0.0,0.0,0.0,0.05,0.0,0.0,0.0,0.0,0.0,0.0,0.05,0.0,0.0,0.0,0.0,0.0,0.0,0.09,0.0,0.0,0.0,0.0,0.0,0.0,0.09,0.0,0.0,0.0,0.0,0.0,0.0,0.09
1336386849587407827,38,1336386849587407827,/odom,/base_link,-0.0427472348084,-0.00308618852142,-0.0178575159844,0.00581739416446,-0.0024098428659,-0.0228229031602,0.999719693551,0.1,0.0,0.0,0.0,0.0,0.0,0.0,0.1,0.0,0.0,0.0,0.0,0.0,0.0,0.1,0.0,0.0,0.0,0.0,0.0,0.0,0.17,0.0,0.0,0.0,0.0,0.0,0.0,0.17,0.0,0.0,0.0,0.0,0.0,0.0,0.17,0.0194812547798,0.00708483735108,1.25542758379e-05,0.00209801998149,-0.0145727162793,0.00414988948036,0.05,0.0,0.0,0.0,0.0,0.0,0.0,0.05,0.0,0.0,0.0,0.0,0.0,0.0,0.05,0.0,0.0,0.0,0.0,0.0,0.0,0.09,0.0,0.0,0.0,0.0,0.0,0.0,0.09,0.0,0.0,0.0,0.0,0.0,0.0,0.09
1336386849686645031,39,1336386849686645031,/odom,/base_link,-0.0403851778395,-0.00388952012181,-0.0177774720712,0.00564520447025,-0.00317056533613,-0.0230836979123,0.999712569728,0.1,0.0,0.0,0.0,0.0,0.0,0.0,0.1,0.0,0.0,0.0,0.0,0.0,0.0,0.1,0.0,0.0,0.0,0.0,0.0,0.0,0.17,0.0,0.0,0.0,0.0,0.0,0.0,0.17,0.0,0.0,0.0,0.0,0.0,0.0,0.17,0.0241503600021,-0.00699111754286,0.000778788287983,-0.00313121645106,-0.0154372245923,-0.00516023994788,0.05,0.0,0.0,0.0,0.0,0.0,0.0,0.05,0.0,0.0,0.0,0.0,0.0,0.0,0.05,0.0,0.0,0.0,0.0,0.0,0.0,0.09,0.0,0.0,0.0,0.0,0.0,0.0,0.09,0.0,0.0,0.0,0.0,0.0,0.0,0.09
1336386849785881996,40,1336386849785881996,/odom,/base_link,-0.0432665364146,-0.00127199692984,-0.0188357707112,0.00585914987286,-0.00249036775237,-0.0236035611585,0.999701125503,0.1,0.0,0.0,0.0,0.0,0.0,0.0,0.1,0.0,0.0,0.0,0.0,0.0,0.0,0.1,0.0,0.0,0.0,0.0,0.0,0.0,0.17,0.0,0.0,0.0,0.0,0.0,0.0,0.17,0.0,0.0,0.0,0.0,0.0,0.0,0.17,-0.0302867605611,0.0248857196025,-0.0107656900525,0.0039622090983,0.013744269486,-0.0105705821873,0.05,0.0,0.0,0.0,0.0,0.0,0.0,0.05,0.0,0.0,0.0,0.0,0.0,0.0,0.05,0.0,0.0,0.0,0.0,0.0,0.0,0.09,0.0,0.0,0.0,0.0,0.0,0.0,0.09,0.0,0.0,0.0,0.0,0.0,0.0,0.09
1336386849885118961,41,1336386849885118961,/odom,/base_link,-0.0450031152296,-0.00391832189117,-0.0187712926106,0.00494202059961,-0.0022089494938,-0.024194716965,0.999692609078,0.1,0.0,0.0,0.0,0.0,0.0,0.0,0.1,0.0,0.0,0.0,0.0,0.0,0.0,0.1,0.0,0.0,0.0,0.0,0.0,0.0,0.17,0.0,0.0,0.0,0.0,0.0,0.0,0.17,0.0,0.0,0.0,0.0,0.0,0.0,0.17,-0.0162172813964,-0.0274528283209,0.00105091994598,-0.0186406372237,0.00516343496928,-0.0119017172811,0.05,0.0,0.0,0.0,0.0,0.0,0.0,0.05,0.0,0.0,0.0,0.0,0.0,0.0,0.05,0.0,0.0,0.0,0.0,0.0,0.0,0.09,0.0,0.0,0.0,0.0,0.0,0.0,0.09,0.0,0.0,0.0,0.0,0.0,0.0,0.09
1336386849984355927,42,1336386849984355927,/odom,/base_link,-0.0449901971052,-0.000956682721494,-0.0185945279314,0.00541837548185,-0.00215961187375,-0.0250931668155,0.999668100053,0.1,0.0,0.0,0.0,0.0,0.0,0.0,0.1,0.0,0.0,0.0,0.0,0.0,0.0,0.1,0.0,0.0,0.0,0.0,0.0,0.0,0.17,0.0,0.0,0.0,0.0,0.0,0.0,0.17,0.0,0.0,0.0,0.0,0.0,0.0,0.17,-0.00130688559913,0.0298317991802,0.00148882807127,0.00953578771978,0.00113573481353,-0.0181396696672,0.05,0.0,0.0,0.0,0.0,0.0,0.0,0.05,0.0,0.0,0.0,0.0,0.0,0.0,0.05,0.0,0.0,0.0,0.0,0.0,0.0,0.09,0.0,0.0,0.0,0.0,0.0,0.0,0.09,0.0,0.0,0.0,0.0,0.0,0.0,0.09
1336386850083592892,43,1336386850083592892,/odom,/base_link,-0.0438145696618,-0.000545992374306,-0.017537274356,0.00506628028951,-0.00243891054863,-0.0259471834311,0.999647501968,0.1,0.0,0.0,0.0,0.0,0.0,0.0,0.1,0.0,0.0,0.0,0.0,0.0,0.0,0.1,0.0,0.0,0.0,0.0,0.0,0.0,0.17,0.0,0.0,0.0,0.0,0.0,0.0,0.17,0.0,0.0,0.0,0.0,0.0,0.0,0.17,0.0116670200276,0.0048436623483,0.0105543461043,-0.00698736874568,-0.00589927495424,-0.0171705460148,0.05,0.0,0.0,0.0,0.0,0.0,0.0,0.05,0.0,0.0,0.0,0.0,0.0,0.0,0.05,0.0,0.0,0.0,0.0,0.0,0.0,0.09,0.0,0.0,0.0,0.0,0.0,0.0,0.09,0.0,0.0,0.0,0.0,0.0,0.0,0.09
1336386850182829857,44,1336386850182829857,/odom,/base_link,-0.0504717433945,0.000111589645802,-0.0203257143066,0.00491928074782,-0.000650464016415,-0.0268634304768,0.999626797198,0.1,0.0,0.0,0.0,0.0,0.0,0.0,0.1,0.0,0.0,0.0,0.0,0.0,0.0,0.1,0.0,0.0,0.0,0.0,0.0,0.0,0.17,0.0,0.0,0.0,0.0,0.0,0.0,0.17,0.0,0.0,0.0,0.0,0.0,0.0,0.17,-0.0674660213021,0.00285057386799,-0.0278185628259,-0.00393971652727,0.0358598356337,-0.0186455557089,0.05,0.0,0.0,0.0,0.0,0.0,0.0,0.05,0.0,0.0,0.0,0.0,0.0,0.0,0.05,0.0,0.0,0.0,0.0,0.0,0.0,0.09,0.0,0.0,0.0,0.0,0.0,0.0,0.09,0.0,0.0,0.0,0.0,0.0,0.0,0.09
1336386850282066822,45,1336386850282066822,/odom,/base_link,-0.047762935364,-0.00489068452167,-0.0183879298257,0.00336120928287,-0.00120907485535,-0.0279351529669,0.999603355156,0.1,0.0,0.0,0.0,0.0,0.0,0.0,0.1,0.0,0.0,0.0,0.0,0.0,0.0,0.1,0.0,0.0,0.0,0.0,0.0,0.0,0.17,0.0,0.0,0.0,0.0,0.0,0.0,0.17,0.0,0.0,0.0,0.0,0.0,0.0,0.17,0.0299847156254,-0.04867362301,0.0199771574322,-0.0310986250721,-0.0122040260455,-0.021528097183,0.05,0.0,0.0,0.0,0.0,0.0,0.0,0.05,0.0,0.0,0.0,0.0,0.0,0.0,0.05,0.0,0.0,0.0,0.0,0.0,0.0,0.09,0.0,0.0,0.0,0.0,0.0,0.0,0.09,0.0,0.0,0.0,0.0,0.0,0.0,0.09
1336386850381304979,46,1336386850381304979,/odom,/base_link,-0.0465825533714,-0.00344423740951,-0.0173945395557,0.0036442663972,-0.00138622723032,-0.0288784662056,0.999575325769,0.1,0.0,0.0,0.0,0.0,0.0,0.0,0.1,0.0,0.0,0.0,0.0,0.0,0.0,0.1,0.0,0.0,0.0,0.0,0.0,0.0,0.17,0.0,0.0,0.0,0.0,0.0,0.0,0.17,0.0,0.0,0.0,0.0,0.0,0.0,0.17,0.0110840206719,0.0152845632289,0.00988196494466,0.00578098894163,-0.00347405597707,-0.0190142392934,0.05,0.0,0.0,0.0,0.0,0.0,0.0,0.05,0.0,0.0,0.0,0.0,0.0,0.0,0.05,0.0,0.0,0.0,0.0,0.0,0.0,0.09,0.0,0.0,0.0,0.0,0.0,0.0,0.09,0.0,0.0,0.0,0.0,0.0,0.0,0.09
1336386850480540991,47,1336386850480540991,/odom,/base_link,-0.04716355345,0.000772232289958,-0.0159973591656,0.00476531842995,-0.0011077438949,-0.0295077451792,0.999552578716,0.1,0.0,0.0,0.0,0.0,0.0,0.0,0.1,0.0,0.0,0.0,0.0,0.0,0.0,0.1,0.0,0.0,0.0,0.0,0.0,0.0,0.17,0.0,0.0,0.0,0.0,0.0,0.0,0.17,0.0,0.0,0.0,0.0,0.0,0.0,0.17,-0.00826232738833,0.0421830655027,0.0137902465611,0.0224060731627,0.00621578041926,-0.0127421024891,0.05,0.0,0.0,0.0,0.0,0.0,0.0,0.05,0.0,0.0,0.0,0.0,0.0,0.0,0.05,0.0,0.0,0.0,0.0,0.0,0.0,0.09,0.0,0.0,0.0,0.0,0.0,0.0,0.09,0.0,0.0,0.0,0.0,0.0,0.0,0.09
1336386850579777002,48,1336386850579777002,/odom,/base_link,-0.0488367359076,-0.002823449037,-0.0140553202418,0.00378607799451,-0.000528731758467,-0.0305911620438,0.999524670461,0.1,0.0,0.0,0.0,0.0,0.0,0.0,0.1,0.0,0.0,0.0,0.0,0.0,0.0,0.1,0.0,0.0,0.0,0.0,0.0,0.0,0.17,0.0,0.0,0.0,0.0,0.0,0.0,0.17,0.0,0.0,0.0,0.0,0.0,0.0,0.17,-0.0146556298944,-0.0369755969609,0.0199538501687,-0.0200926095649,0.0109771518203,-0.0218757383695,0.05,0.0,0.0,0.0,0.0,0.0,0.0,0.05,0.0,0.0,0.0,0.0,0.0,0.0,0.05,0.0,0.0,0.0,0.0,0.0,0.0,0.09,0.0,0.0,0.0,0.0,0.0,0.0,0.09,0.0,0.0,0.0,0.0,0.0,0.0,0.09
1336386850679015875,49,1336386850679015875,/odom,/base_link,-0.0514216088324,-0.00680784746768,-0.0086225945064,0.00335834615679,-7.00815933227e-05,-0.0313403911629,0.999503124798,0.1,0.0,0.0,0.0,0.0,0.0,0.0,0.1,0.0,0.0,0.0,0.0,0.0,0.0,0.1,0.0,0.0,0.0,0.0,0.0,0.0,0.17,0.0,0.0,0.0,0.0,0.0,0.0,0.17,0.0,0.0,0.0,0.0,0.0,0.0,0.17,-0.0234975961598,-0.0412499265779,0.055078467836,-0.00890525638427,0.00891786386755,-0.0151360554981,0.05,0.0,0.0,0.0,0.0,0.0,0.0,0.05,0.0,0.0,0.0,0.0,0.0,0.0,0.05,0.0,0.0,0.0,0.0,0.0,0.0,0.09,0.0,0.0,0.0,0.0,0.0,0.0,0.09,0.0,0.0,0.0,0.0,0.0,0.0,0.09
1336386850778250933,50,1336386850778250933,/odom,/base_link,-0.050138465937,-0.00694174447008,-0.00249128693528,0.00419924771939,-0.000378507272727,-0.0319946588182,0.999479146785,0.1,0.0,0.0,0.0,0.0,0.0,0.0,0.1,0.0,0.0,0.0,0.0,0.0,0.0,0.1,0.0,0.0,0.0,0.0,0.0,0.0,0.17,0.0,0.0,0.0,0.0,0.0,0.0,0.17,0.0,0.0,0.0,0.0,0.0,0.0,0.17,0.012985120443,-0.000121474593145,0.0617888251812,0.0171347664186,-0.00572614654801,-0.0131751283287,0.05,0.0,0.0,0.0,0.0,0.0,0.0,0.05,0.0,0.0,0.0,0.0,0.0,0.0,0.05,0.0,0.0,0.0,0.0,0.0,0.0,0.09,0.0,0.0,0.0,0.0,0.0,0.0,0.09,0.0,0.0,0.0,0.0,0.0,0.0,0.09
1336386850877487898,51,1336386850877487898,/odom,/base_link,-0.0532443356943,-0.00808354110349,0.0023995453791,0.00496711181782,0.000102842309179,-0.0323751214707,0.999463440419,0.1,0.0,0.0,0.0,0.0,0.0,0.0,0.1,0.0,0.0,0.0,0.0,0.0,0.0,0.1,0.0,0.0,0.0,0.0,0.0,0.0,0.17,0.0,0.0,0.0,0.0,0.0,0.0,0.17,0.0,0.0,0.0,0.0,0.0,0.0,0.17,-0.0304734783589,-0.0130684684616,0.0494110202128,0.0151553527753,0.0101587729647,-0.00772049038508,0.05,0.0,0.0,0.0,0.0,0.0,0.0,0.05,0.0,0.0,0.0,0.0,0.0,0.0,0.05,0.0,0.0,0.0,0.0,0.0,0.0,0.09,0.0,0.0,0.0,0.0,0.0,0.0,0.09,0.0,0.0,0.0,0.0,0.0,0.0,0.09
1336386850976724863,52,1336386850976724863,/odom,/base_link,-0.0562081948821,-0.0102857625228,0.00953407779859,0.00565534191956,0.000417856258689,-0.0328520564796,0.999444137953,0.1,0.0,0.0,0.0,0.0,0.0,0.0,0.1,0.0,0.0,0.0,0.0,0.0,0.0,0.1,0.0,0.0,0.0,0.0,0.0,0.0,0.17,0.0,0.0,0.0,0.0,0.0,0.0,0.17,0.0,0.0,0.0,0.0,0.0,0.0,0.17,-0.0284056619525,-0.0233634351768,0.0721143019028,0.0136603780148,0.00674666943253,-0.00964959012537,0.05,0.0,0.0,0.0,0.0,0.0,0.0,0.05,0.0,0.0,0.0,0.0,0.0,0.0,0.05,0.0,0.0,0.0,0.0,0.0,0.0,0.09,0.0,0.0,0.0,0.0,0.0,0.0,0.09,0.0,0.0,0.0,0.0,0.0,0.0,0.09
1336386851075961828,53,1336386851075961828,/odom,/base_link,-0.0519083767429,-0.00488882049099,0.0164487269334,0.00868458096144,-0.00107578276175,-0.0335793180069,0.999397743717,0.1,0.0,0.0,0.0,0.0,0.0,0.0,0.1,0.0,0.0,0.0,0.0,0.0,0.0,0.1,0.0,0.0,0.0,0.0,0.0,0.0,0.17,0.0,0.0,0.0,0.0,0.0,0.0,0.17,0.0,0.0,0.0,0.0,0.0,0.0,0.17,0.0395801298014,0.05789478291,0.0690774930958,0.0620171466375,-0.0281626576951,-0.0144839177695,0.05,0.0,0.0,0.0,0.0,0.0,0.0,0.05,0.0,0.0,0.0,0.0,0.0,0.0,0.05,0.0,0.0,0.0,0.0,0.0,0.0,0.09,0.0,0.0,0.0,0.0,0.0,0.0,0.09,0.0,0.0,0.0,0.0,0.0,0.0,0.09
1336386851175199032,54,1336386851175199032,/odom,/base_link,-0.0521189889082,-0.0121225411821,0.0268116400015,0.00841451191646,-0.00162417798576,-0.0339375446266,0.999387212796,0.1,0.0,0.0,0.0,0.0,0.0,0.0,0.1,0.0,0.0,0.0,0.0,0.0,0.0,0.1,0.0,0.0,0.0,0.0,0.0,0.0,0.17,0.0,0.0,0.0,0.0,0.0,0.0,0.17,0.0,0.0,0.0,0.0,0.0,0.0,0.17,0.00293994203421,-0.0710400206974,0.105675558784,-0.00507441936881,-0.0112912513708,-0.00712054337771,0.05,0.0,0.0,0.0,0.0,0.0,0.0,0.05,0.0,0.0,0.0,0.0,0.0,0.0,0.05,0.0,0.0,0.0,0.0,0.0,0.0,0.09,0.0,0.0,0.0,0.0,0.0,0.0,0.09,0.0,0.0,0.0,0.0,0.0,0.0,0.09
1336386851274435997,55,1336386851274435997,/odom,/base_link,-0.0550494699216,-0.0112564477305,0.0350495216346,0.010215295284,-0.00154671811553,-0.0343181861973,0.999357552381,0.1,0.0,0.0,0.0,0.0,0.0,0.0,0.1,0.0,0.0,0.0,0.0,0.0,0.0,0.1,0.0,0.0,0.0,0.0,0.0,0.0,0.17,0.0,0.0,0.0,0.0,0.0,0.0,0.17,0.0,0.0,0.0,0.0,0.0,0.0,0.17,-0.0298321370825,0.0081091736419,0.0829669432042,0.0362099634438,0.00272631391787,-0.00775903853015,0.05,0.0,0.0,0.0,0.0,0.0,0.0,0.05,0.0,0.0,0.0,0.0,0.0,0.0,0.05,0.0,0.0,0.0,0.0,0.0,0.0,0.09,0.0,0.0,0.0,0.0,0.0,0.0,0.09,0.0,0.0,0.0,0.0,0.0,0.0,0.09
1336386851373672962,56,1336386851373672962,/odom,/base_link,-0.0592646889521,-0.0166885224276,0.0456971631946,0.0103662306849,-0.00136176680717,-0.0342002247278,0.99936031114,0.1,0.0,0.0,0.0,0.0,0.0,0.0,0.1,0.0,0.0,0.0,0.0,0.0,0.0,0.1,0.0,0.0,0.0,0.0,0.0,0.0,0.17,0.0,0.0,0.0,0.0,0.0,0.0,0.17,0.0,0.0,0.0,0.0,0.0,0.0,0.17,-0.0383632131809,-0.0553081801037,0.108545112394,0.00291515389814,0.00385383806336,0.00233496813669,0.05,0.0,0.0,0.0,0.0,0.0,0.0,0.05,0.0,0.0,0.0,0.0,0.0,0.0,0.05,0.0,0.0,0.0,0.0,0.0,0.0,0.09,0.0,0.0,0.0,0.0,0.0,0.0,0.09,0.0,0.0,0.0,0.0,0.0,0.0,0.09
1336386851472909927,57,1336386851472909927,/odom,/base_link,-0.0602120319543,-0.015835668531,0.0566704858269,0.0121703613396,-0.00204516648214,-0.0343514754474,0.999333615833,0.1,0.0,0.0,0.0,0.0,0.0,0.0,0.1,0.0,0.0,0.0,0.0,0.0,0.0,0.1,0.0,0.0,0.0,0.0,0.0,0.0,0.17,0.0,0.0,0.0,0.0,0.0,0.0,0.17,0.0,0.0,0.0,0.0,0.0,0.0,0.17,-0.0098890499425,0.0102212476384,0.110408281364,0.0368092856637,-0.0125530940903,-0.0029714647233,0.05,0.0,0.0,0.0,0.0,0.0,0.0,0.05,0.0,0.0,0.0,0.0,0.0,0.0,0.05,0.0,0.0,0.0,0.0,0.0,0.0,0.09,0.0,0.0,0.0,0.0,0.0,0.0,0.09,0.0,0.0,0.0,0.0,0.0,0.0,0.09
1336386851572145939,58,1336386851572145939,/odom,/base_link,-0.0610042154161,-0.0180710417117,0.0693139930548,0.0129473799873,-0.0027141345242,-0.0346262737375,0.999312773856,0.1,0.0,0.0,0.0,0.0,0.0,0.0,0.1,0.0,0.0,0.0,0.0,0.0,0.0,0.1,0.0,0.0,0.0,0.0,0.0,0.0,0.17,0.0,0.0,0.0,0.0,0.0,0.0,0.17,0.0,0.0,0.0,0.0,0.0,0.0,0.17,-0.00600197053336,-0.0198966226715,0.127953718724,0.0161065055753,-0.0130036998335,-0.00541695935224,0.05,0.0,0.0,0.0,0.0,0.0,0.0,0.05,0.0,0.0,0.0,0.0,0.0,0.0,0.05,0.0,0.0,0.0,0.0,0.0,0.0,0.09,0.0,0.0,0.0,0.0,0.0,0.0,0.09,0.0,0.0,0.0,0.0,0.0,0.0,0.09
1336386851671383858,59,1336386851671383858,/odom,/base_link,-0.0655721473774,-0.0161633611551,0.0796275968705,0.0145755116312,-0.00265516662671,-0.0347396964053,0.999286574534,0.1,0.0,0.0,0.0,0.0,0.0,0.0,0.1,0.0,0.0,0.0,0.0,0.0,0.0,0.1,0.0,0.0,0.0,0.0,0.0,0.0,0.17,0.0,0.0,0.0,0.0,0.0,0.0,0.17,0.0,0.0,0.0,0.0,0.0,0.0,0.17,-0.0467801729615,0.0186973616364,0.103688816032,0.0327496388034,0.00229275103827,-0.00240703166915,0.05,0.0,0.0,0.0,0.0,0.0,0.0,0.05,0.0,0.0,0.0,0.0,0.0,0.0,0.05,0.0,0.0,0.0,0.0,0.0,0.0,0.09,0.0,0.0,0.0,0.0,0.0,0.0,0.09,0.0,0.0,0.0,0.0,0.0,0.0,0.09
1336386851770620823,60,1336386851770620823,/odom,/base_link,-0.0694151093493,-0.015368777971,0.0909074335097,0.0157655282519,-0.00273419257116,-0.0352447815539,0.999250608047,0.1,0.0,0.0,0.0,0.0,0.0,0.0,0.1,0.0,0.0,0.0,0.0,0.0,0.0,0.1,0.0,0.0,0.0,0.0,0.0,0.0,0.17,0.0,0.0,0.0,0.0,0.0,0.0,0.17,0.0,0.0,0.0,0.0,0.0,0.0,0.17,-0.0386995655868,0.00863059502094,0.113628723916,0.0240050962443,-0.000908656029497,-0.0102377629907,0.05,0.0,0.0,0.0,0.0,0.0,0.0,0.05,0.0,0.0,0.0,0.0,0.0,0.0,0.05,0.0,0.0,0.0,0.0,0.0,0.0,0.09,0.0,0.0,0.0,0.0,0.0,0.0,0.09,0.0,0.0,0.0,0.0,0.0,0.0,0.09
1336386851869858027,61,1336386851869858027,/odom,/base_link,-0.0704345397507,-0.0243737454004,0.10476177012,0.0142156006265,-0.0035196451632,-0.0361412303703,0.999239380861,0.1,0.0,0.0,0.0,0.0,0.0,0.0,0.1,0.0,0.0,0.0,0.0,0.0,0.0,0.1,0.0,0.0,0.0,0.0,0.0,0.0,0.17,0.0,0.0,0.0,0.0,0.0,0.0,0.17,0.0,0.0,0.0,0.0,0.0,0.0,0.17,-0.00323989322632,-0.0867683854585,0.142445907615,-0.0307013496456,-0.0172043354045,-0.0177262634163,0.05,0.0,0.0,0.0,0.0,0.0,0.0,0.05,0.0,0.0,0.0,0.0,0.0,0.0,0.05,0.0,0.0,0.0,0.0,0.0,0.0,0.09,0.0,0.0,0.0,0.0,0.0,0.0,0.09,0.0,0.0,0.0,0.0,0.0,0.0,0.09
1336386851969094992,62,1336386851969094992,/odom,/base_link,-0.0712928191228,-0.0218963219573,0.11784470274,0.0153587718927,-0.00417440775987,-0.0365098319709,0.99920654252,0.1,0.0,0.0,0.0,0.0,0.0,0.0,0.1,0.0,0.0,0.0,0.0,0.0,0.0,0.1,0.0,0.0,0.0,0.0,0.0,0.0,0.17,0.0,0.0,0.0,0.0,0.0,0.0,0.17,0.0,0.0,0.0,0.0,0.0,0.0,0.17,-0.00963976104865,0.0280445264965,0.131145561751,0.0234818851544,-0.0124611755515,-0.00734048810283,0.05,0.0,0.0,0.0,0.0,0.0,0.0,0.05,0.0,0.0,0.0,0.0,0.0,0.0,0.05,0.0,0.0,0.0,0.0,0.0,0.0,0.09,0.0,0.0,0.0,0.0,0.0,0.0,0.09,0.0,0.0,0.0,0.0,0.0,0.0,0.09
1336386852068331003,63,1336386852068331003,/odom,/base_link,-0.0739885652336,-0.02729307687,0.131315243439,0.013953801757,-0.00431261155076,-0.0371262522077,0.99920385017,0.1,0.0,0.0,0.0,0.0,0.0,0.0,0.1,0.0,0.0,0.0,0.0,0.0,0.0,0.1,0.0,0.0,0.0,0.0,0.0,0.0,0.17,0.0,0.0,0.0,0.0,0.0,0.0,0.17,0.0,0.0,0.0,0.0,0.0,0.0,0.17,-0.0221366232972,-0.0519831698728,0.137583384445,-0.0282426093665,-0.0040079831718,-0.0122544650161,0.05,0.0,0.0,0.0,0.0,0.0,0.0,0.05,0.0,0.0,0.0,0.0,0.0,0.0,0.05,0.0,0.0,0.0,0.0,0.0,0.0,0.09,0.0,0.0,0.0,0.0,0.0,0.0,0.09,0.0,0.0,0.0,0.0,0.0,0.0,0.09
1336386852167567968,64,1336386852167567968,/odom,/base_link,-0.0765448173323,-0.0252724719066,0.142490994003,0.0142102365654,-0.00410067876827,-0.0371280966782,0.999201059871,0.1,0.0,0.0,0.0,0.0,0.0,0.0,0.1,0.0,0.0,0.0,0.0,0.0,0.0,0.1,0.0,0.0,0.0,0.0,0.0,0.0,0.17,0.0,0.0,0.0,0.0,0.0,0.0,0.17,0.0,0.0,0.0,0.0,0.0,0.0,0.17,-0.026346347014,0.0215657275517,0.112256191622,0.00500606529724,0.00445895839089,-0.00012111952909,0.05,0.0,0.0,0.0,0.0,0.0,0.0,0.05,0.0,0.0,0.0,0.0,0.0,0.0,0.05,0.0,0.0,0.0,0.0,0.0,0.0,0.09,0.0,0.0,0.0,0.0,0.0,0.0,0.09,0.0,0.0,0.0,0.0,0.0,0.0,0.09
1336386852266804934,65,1336386852266804934,/odom,/base_link,-0.0776838765449,-0.0266555985972,0.155010547138,0.0133492496631,-0.00415293467592,-0.0368620497826,0.999222567776,0.1,0.0,0.0,0.0,0.0,0.0,0.0,0.1,0.0,0.0,0.0,0.0,0.0,0.0,0.1,0.0,0.0,0.0,0.0,0.0,0.0,0.17,0.0,0.0,0.0,0.0,0.0,0.0,0.17,0.0,0.0,0.0,0.0,0.0,0.0,0.17,-0.00950967180171,-0.0111228424786,0.126600694029,-0.017283350621,-0.00161859418055,0.005459782476,0.05,0.0,0.0,0.0,0.0,0.0,0.0,0.05,0.0,0.0,0.0,0.0,0.0,0.0,0.05,0.0,0.0,0.0,0.0,0.0,0.0,0.09,0.0,0.0,0.0,0.0,0.0,0.0,0.09,0.0,0.0,0.0,0.0,0.0,0.0,0.09
1336386852366041899,66,1336386852366041899,/odom,/base_link,-0.0762379473885,-0.0256254430331,0.169798452033,0.0127201213443,-0.00458072392253,-0.036617366594,0.999237901576,0.1,0.0,0.0,0.0,0.0,0.0,0.0,0.1,0.0,0.0,0.0,0.0,0.0,0.0,0.1,0.0,0.0,0.0,0.0,0.0,0.0,0.17,0.0,0.0,0.0,0.0,0.0,0.0,0.17,0.0,0.0,0.0,0.0,0.0,0.0,0.17,0.014854591293,0.015441635376,0.148548820606,-0.0123352952669,-0.00901514187294,0.00510659753776,0.05,0.0,0.0,0.0,0.0,0.0,0.0,0.05,0.0,0.0,0.0,0.0,0.0,0.0,0.05,0.0,0.0,0.0,0.0,0.0,0.0,0.09,0.0,0.0,0.0,0.0,0.0,0.0,0.09,0.0,0.0,0.0,0.0,0.0,0.0,0.09
1336386852465278864,67,1336386852465278864,/odom,/base_link,-0.0693983238129,-0.0220575889712,0.184615938299,0.0125681267035,-0.00624364053318,-0.0360132208234,0.999252774362,0.1,0.0,0.0,0.0,0.0,0.0,0.0,0.1,0.0,0.0,0.0,0.0,0.0,0.0,0.1,0.0,0.0,0.0,0.0,0.0,0.0,0.17,0.0,0.0,0.0,0.0,0.0,0.0,0.17,0.0,0.0,0.0,0.0,0.0,0.0,0.17,0.067327032441,0.0447262256678,0.147662555672,-0.00178177524583,-0.0334444505551,0.0126178592813,0.05,0.0,0.0,0.0,0.0,0.0,0.0,0.05,0.0,0.0,0.0,0.0,0.0,0.0,0.05,0.0,0.0,0.0,0.0,0.0,0.0,0.09,0.0,0.0,0.0,0.0,0.0,0.0,0.09,0.0,0.0,0.0,0.0,0.0,0.0,0.09
1336386852564515829,68,1336386852564515829,/odom,/base_link,-0.0737488836204,-0.026625597342,0.199029614248,0.0099211402368,-0.00456832261641,-0.0355966204033,0.999306550574,0.1,0.0,0.0,0.0,0.0,0.0,0.0,0.1,0.0,0.0,0.0,0.0,0.0,0.0,0.1,0.0,0.0,0.0,0.0,0.0,0.0,0.17,0.0,0.0,0.0,0.0,0.0,0.0,0.17,0.0,0.0,0.0,0.0,0.0,0.0,0.17,-0.0387218804483,-0.0453322779403,0.146910030706,-0.0544841617974,0.0319299134577,0.00833757245908,0.05,0.0,0.0,0.0,0.0,0.0,0.0,0.05,0.0,0.0,0.0,0.0,0.0,0.0,0.05,0.0,0.0,0.0,0.0,0.0,0.0,0.09,0.0,0.0,0.0,0.0,0.0,0.0,0.09,0.0,0.0,0.0,0.0,0.0,0.0,0.09
1336386852663753986,69,1336386852663753986,/odom,/base_link,-0.0720281900452,-0.0251004517497,0.212245256767,0.00880352205301,-0.00437603830846,-0.03499159894,0.999339249851,0.1,0.0,0.0,0.0,0.0,0.0,0.0,0.1,0.0,0.0,0.0,0.0,0.0,0.0,0.1,0.0,0.0,0.0,0.0,0.0,0.0,0.17,0.0,0.0,0.0,0.0,0.0,0.0,0.17,0.0,0.0,0.0,0.0,0.0,0.0,0.17,0.0173214276171,0.0192424564778,0.132668910103,-0.0225971273011,0.00319472812387,0.0122727797901,0.05,0.0,0.0,0.0,0.0,0.0,0.0,0.05,0.0,0.0,0.0,0.0,0.0,0.0,0.05,0.0,0.0,0.0,0.0,0.0,0.0,0.09,0.0,0.0,0.0,0.0,0.0,0.0,0.09,0.0,0.0,0.0,0.0,0.0,0.0,0.09
1336386852762989998,70,1336386852762989998,/odom,/base_link,-0.0760076386281,-0.0266707595631,0.226307918149,0.00668333861106,-0.00248237144358,-0.0346630967367,0.999373624097,0.1,0.0,0.0,0.0,0.0,0.0,0.0,0.1,0.0,0.0,0.0,0.0,0.0,0.0,0.1,0.0,0.0,0.0,0.0,0.0,0.0,0.17,0.0,0.0,0.0,0.0,0.0,0.0,0.17,0.0,0.0,0.0,0.0,0.0,0.0,0.17,-0.0377410922472,-0.0160473794233,0.142330885737,-0.0440145260822,0.0367058664361,0.00649150352703,0.05,0.0,0.0,0.0,0.0,0.0,0.0,0.05,0.0,0.0,0.0,0.0,0.0,0.0,0.05,0.0,0.0,0.0,0.0,0.0,0.0,0.09,0.0,0.0,0.0,0.0,0.0,0.0,0.09,0.0,0.0,0.0,0.0,0.0,0.0,0.09
1336386852862227917,71,1336386852862227917,/odom,/base_link,-0.0729979357867,-0.0275659476418,0.240776078813,0.00470379792244,-0.00228608975773,-0.0343736776299,0.999395366392,0.1,0.0,0.0,0.0,0.0,0.0,0.0,0.1,0.0,0.0,0.0,0.0,0.0,0.0,0.1,0.0,0.0,0.0,0.0,0.0,0.0,0.17,0.0,0.0,0.0,0.0,0.0,0.0,0.17,0.0,0.0,0.0,0.0,0.0,0.0,0.17,0.0315359920913,-0.00492529737703,0.145732262532,-0.0399954514398,0.00261049558961,0.00591696835049,0.05,0.0,0.0,0.0,0.0,0.0,0.0,0.05,0.0,0.0,0.0,0.0,0.0,0.0,0.05,0.0,0.0,0.0,0.0,0.0,0.0,0.09,0.0,0.0,0.0,0.0,0.0,0.0,0.09,0.0,0.0,0.0,0.0,0.0,0.0,0.09
1336386852961464882,72,1336386852961464882,/odom,/base_link,-0.0742920867967,-0.0315017143211,0.255386700254,0.00203249234071,-0.000814571204433,-0.0345783445474,0.999399591523,0.1,0.0,0.0,0.0,0.0,0.0,0.0,0.1,0.0,0.0,0.0,0.0,0.0,0.0,0.1,0.0,0.0,0.0,0.0,0.0,0.0,0.17,0.0,0.0,0.0,0.0,0.0,0.0,0.17,0.0,0.0,0.0,0.0,0.0,0.0,0.17,-0.00965917665283,-0.0390531470078,0.14765203018,-0.0548336786161,0.0277689935318,-0.00413582049507,0.05,0.0,0.0,0.0,0.0,0.0,0.0,0.05,0.0,0.0,0.0,0.0,0.0,0.0,0.05,0.0,0.0,0.0,0.0,0.0,0.0,0.09,0.0,0.0,0.0,0.0,0.0,0.0,0.09,0.0,0.0,0.0,0.0,0.0,0.0,0.09
1336386853060699940,73,1336386853060699940,/odom,/base_link,-0.0707246293607,-0.0259212481794,0.269187843209,0.00218093391832,-0.000556652760846,-0.034678351126,0.9993959904,0.1,0.0,0.0,0.0,0.0,0.0,0.0,0.1,0.0,0.0,0.0,0.0,0.0,0.0,0.1,0.0,0.0,0.0,0.0,0.0,0.0,0.17,0.0,0.0,0.0,0.0,0.0,0.0,0.17,0.0,0.0,0.0,0.0,0.0,0.0,0.17,0.032183576315,0.0591572602157,0.138785067672,0.00280868316319,0.00529430354221,-0.00202985097828,0.05,0.0,0.0,0.0,0.0,0.0,0.0,0.05,0.0,0.0,0.0,0.0,0.0,0.0,0.05,0.0,0.0,0.0,0.0,0.0,0.0,0.09,0.0,0.0,0.0,0.0,0.0,0.0,0.09,0.0,0.0,0.0,0.0,0.0,0.0,0.09
1336386853159937859,74,1336386853159937859,/odom,/base_link,-0.069903291869,-0.0229576222904,0.282363551263,0.00155545789613,0.000437065552783,-0.0353200691521,0.999374745648,0.1,0.0,0.0,0.0,0.0,0.0,0.0,0.1,0.0,0.0,0.0,0.0,0.0,0.0,0.1,0.0,0.0,0.0,0.0,0.0,0.0,0.17,0.0,0.0,0.0,0.0,0.0,0.0,0.17,0.0,0.0,0.0,0.0,0.0,0.0,0.17,0.00631409753139,0.0309492904513,0.132628050638,-0.0132987435771,0.0195493123975,-0.0129766205287,0.05,0.0,0.0,0.0,0.0,0.0,0.0,0.05,0.0,0.0,0.0,0.0,0.0,0.0,0.05,0.0,0.0,0.0,0.0,0.0,0.0,0.09,0.0,0.0,0.0,0.0,0.0,0.0,0.09,0.0,0.0,0.0,0.0,0.0,0.0,0.09
1336386853259174824,75,1336386853259174824,/odom,/base_link,-0.0704569662963,-0.0232855527678,0.295753222714,0.000314762957531,0.0018907698614,-0.0359642982252,0.999351237137,0.1,0.0,0.0,0.0,0.0,0.0,0.0,0.1,0.0,0.0,0.0,0.0,0.0,0.0,0.1,0.0,0.0,0.0,0.0,0.0,0.0,0.17,0.0,0.0,0.0,0.0,0.0,0.0,0.17,0.0,0.0,0.0,0.0,0.0,0.0,0.17,-0.0054648074223,-0.00327482745151,0.134931659281,-0.0260174596,0.0283761822191,-0.0130487760931,0.05,0.0,0.0,0.0,0.0,0.0,0.0,0.05,0.0,0.0,0.0,0.0,0.0,0.0,0.05,0.0,0.0,0.0,0.0,0.0,0.0,0.09,0.0,0.0,0.0,0.0,0.0,0.0,0.09,0.0,0.0,0.0,0.0,0.0,0.0,0.09
1336386853358412027,76,1336386853358412027,/odom,/base_link,-0.0696942378812,-0.0248284725528,0.310202887417,-0.00120124201118,0.00285316904076,-0.0366612984617,0.999322953624,0.1,0.0,0.0,0.0,0.0,0.0,0.0,0.1,0.0,0.0,0.0,0.0,0.0,0.0,0.1,0.0,0.0,0.0,0.0,0.0,0.0,0.17,0.0,0.0,0.0,0.0,0.0,0.0,0.17,0.0,0.0,0.0,0.0,0.0,0.0,0.17,0.0082300024994,-0.014883284077,0.145647033086,-0.0312041773303,0.0182811965086,-0.0141224258984,0.05,0.0,0.0,0.0,0.0,0.0,0.0,0.05,0.0,0.0,0.0,0.0,0.0,0.0,0.05,0.0,0.0,0.0,0.0,0.0,0.0,0.09,0.0,0.0,0.0,0.0,0.0,0.0,0.09,0.0,0.0,0.0,0.0,0.0,0.0,0.09
1336386853457648993,77,1336386853457648993,/odom,/base_link,-0.0707484455676,-0.027026838838,0.324306636813,-0.002558470977,0.0043284298208,-0.0374583557512,0.999285540026,0.1,0.0,0.0,0.0,0.0,0.0,0.0,0.1,0.0,0.0,0.0,0.0,0.0,0.0,0.1,0.0,0.0,0.0,0.0,0.0,0.0,0.17,0.0,0.0,0.0,0.0,0.0,0.0,0.17,0.0,0.0,0.0,0.0,0.0,0.0,0.17,-0.00976898955895,-0.023242345143,0.142009143651,-0.0283798868011,0.0287306142742,-0.0161228257407,0.05,0.0,0.0,0.0,0.0,0.0,0.0,0.05,0.0,0.0,0.0,0.0,0.0,0.0,0.05,0.0,0.0,0.0,0.0,0.0,0.0,0.09,0.0,0.0,0.0,0.0,0.0,0.0,0.09,0.0,0.0,0.0,0.0,0.0,0.0,0.09
1336386853556885958,78,1336386853556885958,/odom,/base_link,-0.0715749898318,-0.0292606069751,0.338222510639,-0.00343684024266,0.005725162809,-0.0382155504746,0.999247207823,0.1,0.0,0.0,0.0,0.0,0.0,0.0,0.1,0.0,0.0,0.0,0.0,0.0,0.0,0.1,0.0,0.0,0.0,0.0,0.0,0.0,0.17,0.0,0.0,0.0,0.0,0.0,0.0,0.17,0.0,0.0,0.0,0.0,0.0,0.0,0.17,-0.00780587891991,-0.0238318268414,0.140040196419,-0.0186801791875,0.0275086352957,-0.0152829840168,0.05,0.0,0.0,0.0,0.0,0.0,0.0,0.05,0.0,0.0,0.0,0.0,0.0,0.0,0.05,0.0,0.0,0.0,0.0,0.0,0.0,0.09,0.0,0.0,0.0,0.0,0.0,0.0,0.09,0.0,0.0,0.0,0.0,0.0,0.0,0.09
1336386853656121969,79,1336386853656121969,/odom,/base_link,-0.0657014484005,-0.0297445107407,0.353279391002,-0.00367005600751,0.00489137286549,-0.038344478164,0.99924586872,0.1,0.0,0.0,0.0,0.0,0.0,0.0,0.1,0.0,0.0,0.0,0.0,0.0,0.0,0.1,0.0,0.0,0.0,0.0,0.0,0.0,0.17,0.0,0.0,0.0,0.0,0.0,0.0,0.17,0.0,0.0,0.0,0.0,0.0,0.0,0.17,0.0576872833415,-0.00145243281349,0.152375853404,-0.00403972215369,-0.0169620699247,-0.00268214380952,0.05,0.0,0.0,0.0,0.0,0.0,0.0,0.05,0.0,0.0,0.0,0.0,0.0,0.0,0.05,0.0,0.0,0.0,0.0,0.0,0.0,0.09,0.0,0.0,0.0,0.0,0.0,0.0,0.09,0.0,0.0,0.0,0.0,0.0,0.0,0.09
1336386853755359888,80,1336386853755359888,/odom,/base_link,-0.0661101386016,-0.0312295408898,0.366122031358,-0.00365520758602,0.00590957428808,-0.038791719554,0.9992231577,0.1,0.0,0.0,0.0,0.0,0.0,0.0,0.1,0.0,0.0,0.0,0.0,0.0,0.0,0.1,0.0,0.0,0.0,0.0,0.0,0.0,0.17,0.0,0.0,0.0,0.0,0.0,0.0,0.17,0.0,0.0,0.0,0.0,0.0,0.0,0.17,-0.00418734040942,-0.0162331071323,0.129257393272,-0.000445412589946,0.0205517332412,-0.00894749837798,0.05,0.0,0.0,0.0,0.0,0.0,0.0,0.05,0.0,0.0,0.0,0.0,0.0,0.0,0.05,0.0,0.0,0.0,0.0,0.0,0.0,0.09,0.0,0.0,0.0,0.0,0.0,0.0,0.09,0.0,0.0,0.0,0.0,0.0,0.0,0.09
1336386853854596853,81,1336386853854596853,/odom,/base_link,-0.0646748727427,-0.0289947628725,0.379993711862,-0.00252755479757,0.00613804350113,-0.0390698678746,0.999214432098,0.1,0.0,0.0,0.0,0.0,0.0,0.0,0.1,0.0,0.0,0.0,0.0,0.0,0.0,0.1,0.0,0.0,0.0,0.0,0.0,0.0,0.17,0.0,0.0,0.0,0.0,0.0,0.0,0.17,0.0,0.0,0.0,0.0,0.0,0.0,0.17,0.0110605167629,0.0224866606154,0.140098986968,0.0225626846235,0.005504070735,-0.00545707412895,0.05,0.0,0.0,0.0,0.0,0.0,0.0,0.05,0.0,0.0,0.0,0.0,0.0,0.0,0.05,0.0,0.0,0.0,0.0,0.0,0.0,0.09,0.0,0.0,0.0,0.0,0.0,0.0,0.09,0.0,0.0,0.0,0.0,0.0,0.0,0.09
1336386853953834057,82,1336386853953834057,/odom,/base_link,-0.0664806521514,-0.0304614311024,0.392318365621,-0.00205420150767,0.00723625807104,-0.0392798629241,0.999199934545,0.1,0.0,0.0,0.0,0.0,0.0,0.0,0.1,0.0,0.0,0.0,0.0,0.0,0.0,0.1,0.0,0.0,0.0,0.0,0.0,0.0,0.17,0.0,0.0,0.0,0.0,0.0,0.0,0.17,0.0,0.0,0.0,0.0,0.0,0.0,0.17,-0.0184841506754,-0.0168411927489,0.12388857287,0.00869284390516,0.0225009510191,-0.00412577709065,0.05,0.0,0.0,0.0,0.0,0.0,0.0,0.05,0.0,0.0,0.0,0.0,0.0,0.0,0.05,0.0,0.0,0.0,0.0,0.0,0.0,0.09,0.0,0.0,0.0,0.0,0.0,0.0,0.09,0.0,0.0,0.0,0.0,0.0,0.0,0.09
1336386854053071022,83,1336386854053071022,/odom,/base_link,-0.0675873260826,-0.0320790355946,0.405384198796,-0.00131439483976,0.00778806562995,-0.0393961821856,0.999192453549,0.1,0.0,0.0,0.0,0.0,0.0,0.0,0.1,0.0,0.0,0.0,0.0,0.0,0.0,0.1,0.0,0.0,0.0,0.0,0.0,0.0,0.17,0.0,0.0,0.0,0.0,0.0,0.0,0.17,0.0,0.0,0.0,0.0,0.0,0.0,0.17,-0.0117189569208,-0.0177403768814,0.131427352169,0.0144777966797,0.0117036780117,-0.00221758315313,0.05,0.0,0.0,0.0,0.0,0.0,0.0,0.05,0.0,0.0,0.0,0.0,0.0,0.0,0.05,0.0,0.0,0.0,0.0,0.0,0.0,0.09,0.0,0.0,0.0,0.0,0.0,0.0,0.09,0.0,0.0,0.0,0.0,0.0,0.0,0.09
1336386854152307034,84,1336386854152307034,/odom,/base_link,-0.0682782399379,-0.0351384028119,0.41853927572,-0.000884625759645,0.00809977639916,-0.0393249808386,0.99919325305,0.1,0.0,0.0,0.0,0.0,0.0,0.0,0.1,0.0,0.0,0.0,0.0,0.0,0.0,0.1,0.0,0.0,0.0,0.0,0.0,0.0,0.17,0.0,0.0,0.0,0.0,0.0,0.0,0.17,0.0,0.0,0.0,0.0,0.0,0.0,0.17,-0.00656152882723,-0.031710939013,0.132375860069,0.00839591089892,0.00661635841817,0.0015101802024,0.05,0.0,0.0,0.0,0.0,0.0,0.0,0.05,0.0,0.0,0.0,0.0,0.0,0.0,0.05,0.0,0.0,0.0,0.0,0.0,0.0,0.09,0.0,0.0,0.0,0.0,0.0,0.0,0.09,0.0,0.0,0.0,0.0,0.0,0.0,0.09
1336386854251543999,85,1336386854251543999,/odom,/base_link,-0.0680038408776,-0.0359939434313,0.43063329991,0.000603497710092,0.00819264249897,-0.0386228090647,0.999220093383,0.1,0.0,0.0,0.0,0.0,0.0,0.0,0.1,0.0,0.0,0.0,0.0,0.0,0.0,0.1,0.0,0.0,0.0,0.0,0.0,0.0,0.17,0.0,0.0,0.0,0.0,0.0,0.0,0.17,0.0,0.0,0.0,0.0,0.0,0.0,0.17,0.00146963685442,-0.00867033378851,0.121889172974,0.0297793861683,0.00303260212578,0.0144058564713,0.05,0.0,0.0,0.0,0.0,0.0,0.0,0.05,0.0,0.0,0.0,0.0,0.0,0.0,0.05,0.0,0.0,0.0,0.0,0.0,0.0,0.09,0.0,0.0,0.0,0.0,0.0,0.0,0.09,0.0,0.0,0.0,0.0,0.0,0.0,0.09
1336386854350781918,86,1336386854350781918,/odom,/base_link,-0.0677192816566,-0.0413118227793,0.443795905784,0.000694275901728,0.00780397567797,-0.0380483239788,0.999245185621,0.1,0.0,0.0,0.0,0.0,0.0,0.0,0.1,0.0,0.0,0.0,0.0,0.0,0.0,0.1,0.0,0.0,0.0,0.0,0.0,0.0,0.17,0.0,0.0,0.0,0.0,0.0,0.0,0.17,0.0,0.0,0.0,0.0,0.0,0.0,0.17,0.00481633963977,-0.0531298761566,0.132764312439,0.00203545404363,-0.00775341714191,0.0116081534084,0.05,0.0,0.0,0.0,0.0,0.0,0.0,0.05,0.0,0.0,0.0,0.0,0.0,0.0,0.05,0.0,0.0,0.0,0.0,0.0,0.0,0.09,0.0,0.0,0.0,0.0,0.0,0.0,0.09,0.0,0.0,0.0,0.0,0.0,0.0,0.09
1336386854450017929,87,1336386854450017929,/odom,/base_link,-0.0702698061492,-0.0407258450778,0.455585963923,0.00263313874354,0.00832714147845,-0.0371570202455,0.999271275051,0.1,0.0,0.0,0.0,0.0,0.0,0.0,0.1,0.0,0.0,0.0,0.0,0.0,0.0,0.1,0.0,0.0,0.0,0.0,0.0,0.0,0.17,0.0,0.0,0.0,0.0,0.0,0.0,0.17,0.0,0.0,0.0,0.0,0.0,0.0,0.17,-0.0279322265966,0.00402747114444,0.118382489177,0.0385046007098,0.012031057531,0.0182674003253,0.05,0.0,0.0,0.0,0.0,0.0,0.0,0.05,0.0,0.0,0.0,0.0,0.0,0.0,0.05,0.0,0.0,0.0,0.0,0.0,0.0,0.09,0.0,0.0,0.0,0.0,0.0,0.0,0.09,0.0,0.0,0.0,0.0,0.0,0.0,0.09
1336386854549254894,88,1336386854549254894,/odom,/base_link,-0.0718442018287,-0.0416415546691,0.468317697405,0.00404985338515,0.00829915878294,-0.0364680878737,0.999292150083,0.1,0.0,0.0,0.0,0.0,0.0,0.0,0.1,0.0,0.0,0.0,0.0,0.0,0.0,0.1,0.0,0.0,0.0,0.0,0.0,0.0,0.17,0.0,0.0,0.0,0.0,0.0,0.0,0.17,0.0,0.0,0.0,0.0,0.0,0.0,0.17,-0.0172944059145,-0.00978496829077,0.128070054796,0.0284355890886,0.00053042385689,0.0141293547079,0.05,0.0,0.0,0.0,0.0,0.0,0.0,0.05,0.0,0.0,0.0,0.0,0.0,0.0,0.05,0.0,0.0,0.0,0.0,0.0,0.0,0.09,0.0,0.0,0.0,0.0,0.0,0.0,0.09,0.0,0.0,0.0,0.0,0.0,0.0,0.09
1336386854648491859,89,1336386854648491859,/odom,/base_link,-0.0709490528904,-0.042499040679,0.480471092207,0.00547721629718,0.00716994102608,-0.0357631038876,0.999319564728,0.1,0.0,0.0,0.0,0.0,0.0,0.0,0.1,0.0,0.0,0.0,0.0,0.0,0.0,0.1,0.0,0.0,0.0,0.0,0.0,0.0,0.17,0.0,0.0,0.0,0.0,0.0,0.0,0.17,0.0,0.0,0.0,0.0,0.0,0.0,0.17,0.0075567760354,-0.00704235271319,0.122669657781,0.0294562030294,-0.0216398871659,0.0145490999076,0.05,0.0,0.0,0.0,0.0,0.0,0.0,0.05,0.0,0.0,0.0,0.0,0.0,0.0,0.05,0.0,0.0,0.0,0.0,0.0,0.0,0.09,0.0,0.0,0.0,0.0,0.0,0.0,0.09,0.0,0.0,0.0,0.0,0.0,0.0,0.09
1336386854747728825,90,1336386854747728825,/odom,/base_link,-0.073310291912,-0.0438946175695,0.492619446399,0.00667758138286,0.00712607167188,-0.0354485133376,0.999323787324,0.1,0.0,0.0,0.0,0.0,0.0,0.0,0.1,0.0,0.0,0.0,0.0,0.0,0.0,0.1,0.0,0.0,0.0,0.0,0.0,0.0,0.17,0.0,0.0,0.0,0.0,0.0,0.0,0.17,0.0,0.0,0.0,0.0,0.0,0.0,0.17,-0.0245287641699,-0.014451536674,0.1222272102,0.0241611337355,1.57619136214e-05,0.00651721691154,0.05,0.0,0.0,0.0,0.0,0.0,0.0,0.05,0.0,0.0,0.0,0.0,0.0,0.0,0.05,0.0,0.0,0.0,0.0,0.0,0.0,0.09,0.0,0.0,0.0,0.0,0.0,0.0,0.09,0.0,0.0,0.0,0.0,0.0,0.0,0.09
1336386854846966028,91,1336386854846966028,/odom,/base_link,-0.0724919881685,-0.047550283257,0.506115860728,0.00691885329606,0.00589461397327,-0.0352066212788,0.999338719761,0.1,0.0,0.0,0.0,0.0,0.0,0.0,0.1,0.0,0.0,0.0,0.0,0.0,0.0,0.1,0.0,0.0,0.0,0.0,0.0,0.0,0.17,0.0,0.0,0.0,0.0,0.0,0.0,0.17,0.0,0.0,0.0,0.0,0.0,0.0,0.17,0.00882939534153,-0.034410401755,0.136599408104,0.00570227137599,-0.0245989143539,0.00508277867646,0.05,0.0,0.0,0.0,0.0,0.0,0.0,0.05,0.0,0.0,0.0,0.0,0.0,0.0,0.05,0.0,0.0,0.0,0.0,0.0,0.0,0.09,0.0,0.0,0.0,0.0,0.0,0.0,0.09,0.0,0.0,0.0,0.0,0.0,0.0,0.09
1336386854946202993,92,1336386854946202993,/odom,/base_link,-0.0747077295107,-0.0466951717272,0.517861704221,0.00841476458113,0.00561722736421,-0.0349566902318,0.999337614774,0.1,0.0,0.0,0.0,0.0,0.0,0.0,0.1,0.0,0.0,0.0,0.0,0.0,0.0,0.1,0.0,0.0,0.0,0.0,0.0,0.0,0.17,0.0,0.0,0.0,0.0,0.0,0.0,0.17,0.0,0.0,0.0,0.0,0.0,0.0,0.17,-0.0243286491691,0.00860936820745,0.11796710689,0.0302956243688,-0.00449029321402,0.00524933405057,0.05,0.0,0.0,0.0,0.0,0.0,0.0,0.05,0.0,0.0,0.0,0.0,0.0,0.0,0.05,0.0,0.0,0.0,0.0,0.0,0.0,0.09,0.0,0.0,0.0,0.0,0.0,0.0,0.09,0.0,0.0,0.0,0.0,0.0,0.0,0.09
1336386855045439959,93,1336386855045439959,/odom,/base_link,-0.0751479837553,-0.0475655470163,0.529110764733,0.00911479263624,0.00472994624364,-0.0347886463065,0.9993419326,0.1,0.0,0.0,0.0,0.0,0.0,0.0,0.1,0.0,0.0,0.0,0.0,0.0,0.0,0.1,0.0,0.0,0.0,0.0,0.0,0.0,0.17,0.0,0.0,0.0,0.0,0.0,0.0,0.17,0.0,0.0,0.0,0.0,0.0,0.0,0.17,-0.00515265088778,-0.00719643636209,0.113436095481,0.0147042113818,-0.0173490416108,0.00361724218514,0.05,0.0,0.0,0.0,0.0,0.0,0.0,0.05,0.0,0.0,0.0,0.0,0.0,0.0,0.05,0.0,0.0,0.0,0.0,0.0,0.0,0.09,0.0,0.0,0.0,0.0,0.0,0.0,0.09,0.0,0.0,0.0,0.0,0.0,0.0,0.09
1336386855144676924,94,1336386855144676924,/odom,/base_link,-0.0762790613785,-0.0474328455512,0.538155623728,0.0094259762493,0.00438400704632,-0.0346220231285,0.999346409894,0.1,0.0,0.0,0.0,0.0,0.0,0.0,0.1,0.0,0.0,0.0,0.0,0.0,0.0,0.1,0.0,0.0,0.0,0.0,0.0,0.0,0.17,0.0,0.0,0.0,0.0,0.0,0.0,0.17,0.0,0.0,0.0,0.0,0.0,0.0,0.17,-0.0123819577719,0.00217070365723,0.0909995051474,0.00649323917641,-0.00671903548332,0.00345222852343,0.05,0.0,0.0,0.0,0.0,0.0,0.0,0.05,0.0,0.0,0.0,0.0,0.0,0.0,0.05,0.0,0.0,0.0,0.0,0.0,0.0,0.09,0.0,0.0,0.0,0.0,0.0,0.0,0.09,0.0,0.0,0.0,0.0,0.0,0.0,0.09
1336386855243913889,95,1336386855243913889,/odom,/base_link,-0.0768959437744,-0.0480752255482,0.546535088147,0.00881604181313,0.00395590695739,-0.0344153418823,0.999360902002,0.1,0.0,0.0,0.0,0.0,0.0,0.0,0.1,0.0,0.0,0.0,0.0,0.0,0.0,0.1,0.0,0.0,0.0,0.0,0.0,0.0,0.17,0.0,0.0,0.0,0.0,0.0,0.0,0.17,0.0,0.0,0.0,0.0,0.0,0.0,0.17,-0.00654870308978,-0.00532202923997,0.084494198806,-0.0120067527575,-0.00900980509983,0.00420023390758,0.05,0.0,0.0,0.0,0.0,0.0,0.0,0.05,0.0,0.0,0.0,0.0,0.0,0.0,0.05,0.0,0.0,0.0,0.0,0.0,0.0,0.09,0.0,0.0,0.0,0.0,0.0,0.0,0.09,0.0,0.0,0.0,0.0,0.0,0.0,0.09
1336386855343149900,96,1336386855343149900,/odom,/base_link,-0.074971200289,-0.0458130835773,0.55099697514,0.00853899948545,0.00276859496638,-0.0344028594361,0.999367731935,0.1,0.0,0.0,0.0,0.0,0.0,0.0,0.1,0.0,0.0,0.0,0.0,0.0,0.0,0.1,0.0,0.0,0.0,0.0,0.0,0.0,0.17,0.0,0.0,0.0,0.0,0.0,0.0,0.17,0.0,0.0,0.0,0.0,0.0,0.0,0.17,0.0173998305377,0.0248535772032,0.0446876844228,-0.00475861878945,-0.024104252999,0.000445019240614,0.05,0.0,0.0,0.0,0.0,0.0,0.0,0.05,0.0,0.0,0.0,0.0,0.0,0.0,0.05,0.0,0.0,0.0,0.0,0.0,0.0,0.09,0.0,0.0,0.0,0.0,0.0,0.0,0.09,0.0,0.0,0.0,0.0,0.0,0.0,0.09
1336386855442386866,97,1336386855442386866,/odom,/base_link,-0.077650676524,-0.0442739109466,0.557970688383,0.00672607951853,0.00326578478792,-0.0343123387781,0.999383188728,0.1,0.0,0.0,0.0,0.0,0.0,0.0,0.1,0.0,0.0,0.0,0.0,0.0,0.0,0.1,0.0,0.0,0.0,0.0,0.0,0.0,0.17,0.0,0.0,0.0,0.0,0.0,0.0,0.17,0.0,0.0,0.0,0.0,0.0,0.0,0.17,-0.0284323919952,0.0147991694275,0.069860798453,-0.0368665472422,0.00877165577021,0.00164717825215,0.05,0.0,0.0,0.0,0.0,0.0,0.0,0.05,0.0,0.0,0.0,0.0,0.0,0.0,0.05,0.0,0.0,0.0,0.0,0.0,0.0,0.09,0.0,0.0,0.0,0.0,0.0,0.0,0.09,0.0,0.0,0.0,0.0,0.0,0.0,0.09
1336386855541625023,98,1336386855541625023,/odom,/base_link,-0.0780193434202,-0.0426384347915,0.562629698389,0.00492506910036,0.00325645715546,-0.0341480316082,0.999399345166,0.1,0.0,0.0,0.0,0.0,0.0,0.0,0.1,0.0,0.0,0.0,0.0,0.0,0.0,0.1,0.0,0.0,0.0,0.0,0.0,0.0,0.17,0.0,0.0,0.0,0.0,0.0,0.0,0.17,0.0,0.0,0.0,0.0,0.0,0.0,0.17,-0.00516380256858,0.0168057117976,0.0466947316402,-0.0362809181255,-0.00141208622502,0.00320322960275,0.05,0.0,0.0,0.0,0.0,0.0,0.0,0.05,0.0,0.0,0.0,0.0,0.0,0.0,0.05,0.0,0.0,0.0,0.0,0.0,0.0,0.09,0.0,0.0,0.0,0.0,0.0,0.0,0.09,0.0,0.0,0.0,0.0,0.0,0.0,0.09
1336386855640861988,99,1336386855640861988,/odom,/base_link,-0.0780845570751,-0.0383206770145,0.563923110024,0.00345623712751,0.00353995563929,-0.0344734228484,0.999393369128,0.1,0.0,0.0,0.0,0.0,0.0,0.0,0.1,0.0,0.0,0.0,0.0,0.0,0.0,0.1,0.0,0.0,0.0,0.0,0.0,0.0,0.17,0.0,0.0,0.0,0.0,0.0,0.0,0.17,0.0,0.0,0.0,0.0,0.0,0.0,0.17,-0.00371317574757,0.043486519959,0.0125906074277,-0.0297579062151,0.00466736271701,-0.00668257901359,0.05,0.0,0.0,0.0,0.0,0.0,0.0,0.05,0.0,0.0,0.0,0.0,0.0,0.0,0.05,0.0,0.0,0.0,0.0,0.0,0.0,0.09,0.0,0.0,0.0,0.0,0.0,0.0,0.09,0.0,0.0,0.0,0.0,0.0,0.0,0.09
