%time,field.header.seq,field.header.stamp,field.header.frame_id,field.child_frame_id,field.pose.pose.position.x,field.pose.pose.position.y,field.pose.pose.position.z,field.pose.pose.orientation.x,field.pose.pose.orientation.y,field.pose.pose.orientation.z,field.pose.pose.orientation.w,field.pose.covariance0,field.pose.covariance1,field.pose.covariance2,field.pose.covariance3,field.pose.covariance4,field.pose.covariance5,field.pose.covariance6,field.pose.covariance7,field.pose.covariance8,field.pose.covariance9,field.pose.covariance10,field.pose.covariance11,field.pose.covariance12,field.pose.covariance13,field.pose.covariance14,field.pose.covariance15,field.pose.covariance16,field.pose.covariance17,field.pose.covariance18,field.pose.covariance19,field.pose.covariance20,field.pose.covariance21,field.pose.covariance22,field.pose.covariance23,field.pose.covariance24,field.pose.covariance25,field.pose.covariance26,field.pose.covariance27,field.pose.covariance28,field.pose.covariance29,field.pose.covariance30,field.pose.covariance31,field.pose.covariance32,field.pose.covariance33,field.pose.covariance34,field.pose.covariance35,field.twist.twist.linear.x,field.twist.twist.linear.y,field.twist.twist.linear.z,field.twist.twist.angular.x,field.twist.twist.angular.y,field.twist.twist.angular.z,field.twist.covariance0,field.twist.covariance1,field.twist.covariance2,field.twist.covariance3,field.twist.covariance4,field.twist.covariance5,field.twist.covariance6,field.twist.covariance7,field.twist.covariance8,field.twist.covariance9,field.twist.covariance10,field.twist.covariance11,field.twist.covariance12,field.twist.covariance13,field.twist.covariance14,field.twist.covariance15,field.twist.covariance16,field.twist.covariance17,field.twist.covariance18,field.twist.covariance19,field.twist.covariance20,field.twist.covariance21,field.twist.covariance22,field.twist.covariance23,field.twist.covariance24,field.twist.covariance25,field.twist.covariance26,field.twist.covariance27,field.twist.covariance28,field.twist.covariance29,field.twist.covariance30,field.twist.covariance31,field.twist.covariance32,field.twist.covariance33,field.twist.covariance34,field.twist.covariance35
1347017836107225895,0,1347017836107225895,/odom,/base_link,0.000319856180498,-0.00208847974329,0.000740173117363,-0.00046672619513,0.000259747374501,0.000124883505256,0.999999849551,0.1,0.0,0.0,0.0,0.0,0.0,0.0,0.1,0.0,0.0,0.0,0.0,0.0,0.0,0.1,0.0,0.0,0.0,0.0,0.0,0.0,0.17,0.0,0.0,0.0,0.0,0.0,0.0,0.17,0.0,0.0,0.0,0.0,0.0,0.0,0.17,0.0,0.0,0.0,0.0,0.0,0.0,0.05,0.0,0.0,0.0,0.0,0.0,0.0,0.05,0.0,0.0,0.0,0.0,0.0,0.0,0.05,0.0,0.0,0.0,0.0,0.0,0.0,0.09,0.0,0.0,0.0,0.0,0.0,0.0,0.09,0.0,0.0,0.0,0.0,0.0,0.0,0.09
1347017836607202053,1,1347017836607202053,/odom,/base_link,0.00254802630619,-0.00244230044612,0.00151782493609,-3.22081451004e-05,0.000729567793277,0.000763471252582,0.999999441902,0.1,0.0,0.0,0.0,0.0,0.0,0.0,0.1,0.0,0.0,0.0,0.0,0.0,0.0,0.1,0.0,0.0,0.0,0.0,0.0,0.0,0.17,0.0,0.0,0.0,0.0,0.0,0.0,0.17,0.0,0.0,0.0,0.0,0.0,0.0,0.17,0.0044555672432,-0.000710240770299,0.00155703092561,0.00173772548128,0.00187796238138,0.00255580159725,0.05,0.0,0.0,0.0,0.0,0.0,0.0,0.05,0.0,0.0,0.0,0.0,0.0,0.0,0.05,0.0,0.0,0.0,0.0,0.0,0.0,0.09,0.0,0.0,0.0,0.0,0.0,0.0,0.09,0.0,0.0,0.0,0.0,0.0,0.0,0.09
1347017836707197905,2,1347017836707197905,/odom,/base_link,0.00124297810411,-0.00287069870171,0.00188298226635,-4.6455147966e-05,0.00136269513856,0.000916059921788,0.999998650868,0.1,0.0,0.0,0.0,0.0,0.0,0.0,0.1,0.0,0.0,0.0,0.0,0.0,0.0,0.1,0.0,0.0,0.0,0.0,0.0,0.0,0.17,0.0,0.0,0.0,0.0,0.0,0.0,0.17,0.0,0.0,0.0,0.0,0.0,0.0,0.17,-0.013062864269,-0.00426445765744,0.00363239757881,-0.000277510923629,0.0126631967968,0.00305211053083,0.05,0.0,0.0,0.0,0.0,0.0,0.0,0.05,0.0,0.0,0.0,0.0,0.0,0.0,0.05,0.0,0.0,0.0,0.0,0.0,0.0,0.09,0.0,0.0,0.0,0.0,0.0,0.0,0.09,0.0,0.0,0.0,0.0,0.0,0.0,0.09
1347017836807193041,3,1347017836807193041,/odom,/base_link,0.00342677278878,-0.00247324418779,0.00174323364032,0.000131207692828,0.000954699326438,0.00130872078041,0.999998679291,0.1,0.0,0.0,0.0,0.0,0.0,0.0,0.1,0.0,0.0,0.0,0.0,0.0,0.0,0.1,0.0,0.0,0.0,0.0,0.0,0.0,0.17,0.0,0.0,0.0,0.0,0.0,0.0,0.17,0.0,0.0,0.0,0.0,0.0,0.0,0.17,0.0218499820144,0.00393484374731,-0.00133765193988,0.00353524769715,-0.00816392339891,0.00785805166873,0.05,0.0,0.0,0.0,0.0,0.0,0.0,0.05,0.0,0.0,0.0,0.0,0.0,0.0,0.05,0.0,0.0,0.0,0.0,0.0,0.0,0.09,0.0,0.0,0.0,0.0,0.0,0.0,0.09,0.0,0.0,0.0,0.0,0.0,0.0,0.09
1347017837007184029,4,1347017837007184029,/odom,/base_link,0.00445706249738,-0.00274050874615,0.00173139346616,0.000167130378231,0.00112700156082,0.00143770192285,0.999998317473,0.1,0.0,0.0,0.0,0.0,0.0,0.0,0.1,0.0,0.0,0.0,0.0,0.0,0.0,0.1,0.0,0.0,0.0,0.0,0.0,0.0,0.17,0.0,0.0,0.0,0.0,0.0,0.0,0.17,0.0,0.0,0.0,0.0,0.0,0.0,0.17,0.00514826842767,-0.00134987698394,-4.90177125991e-05,0.000360266663811,0.0017228002709,0.00128998947301,0.05,0.0,0.0,0.0,0.0,0.0,0.0,0.05,0.0,0.0,0.0,0.0,0.0,0.0,0.05,0.0,0.0,0.0,0.0,0.0,0.0,0.09,0.0,0.0,0.0,0.0,0.0,0.0,0.09,0.0,0.0,0.0,0.0,0.0,0.0,0.09
1347017837207173824,5,1347017837207173824,/odom,/base_link,0.00455618101251,-0.00523473666192,0.00170138813313,-0.000601308095084,0.00147482868716,0.00148118094716,0.999997634703,0.1,0.0,0.0,0.0,0.0,0.0,0.0,0.1,0.0,0.0,0.0,0.0,0.0,0.0,0.1,0.0,0.0,0.0,0.0,0.0,0.0,0.17,0.0,0.0,0.0,0.0,0.0,0.0,0.17,0.0,0.0,0.0,0.0,0.0,0.0,0.17,0.000460086631377,-0.0124731992456,-0.000144788168256,-0.00768025275288,0.00348957209762,0.000425579455203,0.05,0.0,0.0,0.0,0.0,0.0,0.0,0.05,0.0,0.0,0.0,0.0,0.0,0.0,0.05,0.0,0.0,0.0,0.0,0.0,0.0,0.09,0.0,0.0,0.0,0.0,0.0,0.0,0.09,0.0,0.0,0.0,0.0,0.0,0.0,0.09
1347017837307169914,6,1347017837307169914,/odom,/base_link,0.00502407596029,-0.00522314949167,0.000916261973506,-0.000526019410417,0.0015150687029,0.00145099458699,0.99999766124,0.1,0.0,0.0,0.0,0.0,0.0,0.0,0.1,0.0,0.0,0.0,0.0,0.0,0.0,0.1,0.0,0.0,0.0,0.0,0.0,0.0,0.17,0.0,0.0,0.0,0.0,0.0,0.0,0.17,0.0,0.0,0.0,0.0,0.0,0.0,0.17,0.00470260797482,0.000111414188901,-0.00783759542801,0.00150791185982,0.000802961727115,-0.000601045371406,0.05,0.0,0.0,0.0,0.0,0.0,0.0,0.05,0.0,0.0,0.0,0.0,0.0,0.0,0.05,0.0,0.0,0.0,0.0,0.0,0.0,0.09,0.0,0.0,0.0,0.0,0.0,0.0,0.09,0.0,0.0,0.0,0.0,0.0,0.0,0.09
1347017837507160902,7,1347017837507160902,/odom,/base_link,0.00437589061016,-0.00569373851081,0.000802592533314,-0.000625553911029,0.00186491402357,0.00137780253483,0.999997116215,0.1,0.0,0.0,0.0,0.0,0.0,0.0,0.1,0.0,0.0,0.0,0.0,0.0,0.0,0.1,0.0,0.0,0.0,0.0,0.0,0.0,0.17,0.0,0.0,0.0,0.0,0.0,0.0,0.17,0.0,0.0,0.0,0.0,0.0,0.0,0.17,-0.00324614591768,-0.00234303376182,-0.000580671654448,-0.000989204995041,0.00350044033743,-0.000731611646643,0.05,0.0,0.0,0.0,0.0,0.0,0.0,0.05,0.0,0.0,0.0,0.0,0.0,0.0,0.05,0.0,0.0,0.0,0.0,0.0,0.0,0.09,0.0,0.0,0.0,0.0,0.0,0.0,0.09,0.0,0.0,0.0,0.0,0.0,0.0,0.09
1347017837607156038,8,1347017837607156038,/odom,/base_link,0.00551637187879,-0.0073637309528,4.38298015978e-05,-0.00119257637959,0.001643910254,0.00122026149521,0.999997193137,0.1,0.0,0.0,0.0,0.0,0.0,0.0,0.1,0.0,0.0,0.0,0.0,0.0,0.0,0.1,0.0,0.0,0.0,0.0,0.0,0.0,0.17,0.0,0.0,0.0,0.0,0.0,0.0,0.17,0.0,0.0,0.0,0.0,0.0,0.0,0.17,0.0113875781917,-0.0167226610948,-0.0075663975883,-0.0113411820693,-0.00440268404246,-0.00317488241979,0.05,0.0,0.0,0.0,0.0,0.0,0.0,0.05,0.0,0.0,0.0,0.0,0.0,0.0,0.05,0.0,0.0,0.0,0.0,0.0,0.0,0.09,0.0,0.0,0.0,0.0,0.0,0.0,0.09,0.0,0.0,0.0,0.0,0.0,0.0,0.09
1347017837807147026,9,1347017837807147026,/odom,/base_link,0.00724617231433,-0.0080059810911,-6.33251849788e-05,-0.00141664821424,0.00123229985822,0.00122366640015,0.99999748859,0.1,0.0,0.0,0.0,0.0,0.0,0.0,0.1,0.0,0.0,0.0,0.0,0.0,0.0,0.1,0.0,0.0,0.0,0.0,0.0,0.0,0.17,0.0,0.0,0.0,0.0,0.0,0.0,0.17,0.0,0.0,0.0,0.0,0.0,0.0,0.17,0.008643257707,-0.00323124378366,-0.000515054793033,-0.0022458885125,-0.00411358911455,2.54541881878e-05,0.05,0.0,0.0,0.0,0.0,0.0,0.0,0.05,0.0,0.0,0.0,0.0,0.0,0.0,0.05,0.0,0.0,0.0,0.0,0.0,0.0,0.09,0.0,0.0,0.0,0.0,0.0,0.0,0.09,0.0,0.0,0.0,0.0,0.0,0.0,0.09
1347017837907141924,10,1347017837907141924,/odom,/base_link,0.00640131270305,-0.00742277783753,-0.00057905371603,-0.00131092731487,0.00150713629346,0.00111769923535,0.999997380376,0.1,0.0,0.0,0.0,0.0,0.0,0.0,0.1,0.0,0.0,0.0,0.0,0.0,0.0,0.1,0.0,0.0,0.0,0.0,0.0,0.0,0.17,0.0,0.0,0.0,0.0,0.0,0.0,0.17,0.0,0.0,0.0,0.0,0.0,0.0,0.17,-0.00842199382359,0.00586759352671,-0.0051617639401,0.00212385583424,0.00549741315797,-0.00210905043586,0.05,0.0,0.0,0.0,0.0,0.0,0.0,0.05,0.0,0.0,0.0,0.0,0.0,0.0,0.05,0.0,0.0,0.0,0.0,0.0,0.0,0.09,0.0,0.0,0.0,0.0,0.0,0.0,0.09,0.0,0.0,0.0,0.0,0.0,0.0,0.09
1347017838107132912,11,1347017838107132912,/odom,/base_link,0.00662639876173,-0.00772314328606,-0.00137546212135,-0.0014701140727,0.00136044625577,0.000959872357393,0.999997533295,0.1,0.0,0.0,0.0,0.0,0.0,0.0,0.1,0.0,0.0,0.0,0.0,0.0,0.0,0.1,0.0,0.0,0.0,0.0,0.0,0.0,0.17,0.0,0.0,0.0,0.0,0.0,0.0,0.17,0.0,0.0,0.0,0.0,0.0,0.0,0.17,0.00113413683169,-0.00149397898057,-0.00398274328773,-0.00159119400954,-0.00146311656004,-0.00158265984953,0.05,0.0,0.0,0.0,0.0,0.0,0.0,0.05,0.0,0.0,0.0,0.0,0.0,0.0,0.05,0.0,0.0,0.0,0.0,0.0,0.0,0.09,0.0,0.0,0.0,0.0,0.0,0.0,0.09,0.0,0.0,0.0,0.0,0.0,0.0,0.09
1347017838207129002,12,1347017838207129002,/odom,/base_link,0.00655631410657,-0.00653475670267,-0.00144251958231,-0.0011254641927,0.0013184751733,0.000922861425859,0.999998071638,0.1,0.0,0.0,0.0,0.0,0.0,0.0,0.1,0.0,0.0,0.0,0.0,0.0,0.0,0.1,0.0,0.0,0.0,0.0,0.0,0.0,0.17,0.0,0.0,0.0,0.0,0.0,0.0,0.17,0.0,0.0,0.0,0.0,0.0,0.0,0.17,-0.000676276262184,0.0118875755046,-0.000637526873833,0.00689346738872,-0.000844995474787,-0.00073211227271,0.05,0.0,0.0,0.0,0.0,0.0,0.0,0.05,0.0,0.0,0.0,0.0,0.0,0.0,0.05,0.0,0.0,0.0,0.0,0.0,0.0,0.09,0.0,0.0,0.0,0.0,0.0,0.0,0.09,0.0,0.0,0.0,0.0,0.0,0.0,0.09
1347017838407119989,13,1347017838407119989,/odom,/base_link,0.00580479124725,-0.00719652937587,-0.0018582094564,-0.00135925150836,0.00136610501754,0.000970042846228,0.999997672602,0.1,0.0,0.0,0.0,0.0,0.0,0.0,0.1,0.0,0.0,0.0,0.0,0.0,0.0,0.1,0.0,0.0,0.0,0.0,0.0,0.0,0.17,0.0,0.0,0.0,0.0,0.0,0.0,0.17,0.0,0.0,0.0,0.0,0.0,0.0,0.17,-0.00375837654114,-0.00329737791703,-0.00209588819986,-0.00233816104981,0.000477950851734,0.000469291758852,0.05,0.0,0.0,0.0,0.0,0.0,0.0,0.05,0.0,0.0,0.0,0.0,0.0,0.0,0.05,0.0,0.0,0.0,0.0,0.0,0.0,0.09,0.0,0.0,0.0,0.0,0.0,0.0,0.09,0.0,0.0,0.0,0.0,0.0,0.0,0.09
1347017838607110023,14,1347017838607110023,/odom,/base_link,0.00658213539178,-0.00603619245269,-0.00299556074241,-0.00109245241094,0.000930560190781,0.00099909410862,0.999998471207,0.1,0.0,0.0,0.0,0.0,0.0,0.0,0.1,0.0,0.0,0.0,0.0,0.0,0.0,0.1,0.0,0.0,0.0,0.0,0.0,0.0,0.17,0.0,0.0,0.0,0.0,0.0,0.0,0.17,0.0,0.0,0.0,0.0,0.0,0.0,0.17,0.00391368048573,0.00580983113177,-0.00566059995865,0.00266350661619,-0.00435864936722,0.000288243182918,0.05,0.0,0.0,0.0,0.0,0.0,0.0,0.05,0.0,0.0,0.0,0.0,0.0,0.0,0.05,0.0,0.0,0.0,0.0,0.0,0.0,0.09,0.0,0.0,0.0,0.0,0.0,0.0,0.09,0.0,0.0,0.0,0.0,0.0,0.0,0.09
1347017838707104921,15,1347017838707104921,/odom,/base_link,0.00711902982792,-0.00273066480595,-0.00313882079916,-4.38932629628e-05,0.000650437448344,0.000936409064563,0.999999349071,0.1,0.0,0.0,0.0,0.0,0.0,0.0,0.1,0.0,0.0,0.0,0.0,0.0,0.0,0.1,0.0,0.0,0.0,0.0,0.0,0.0,0.17,0.0,0.0,0.0,0.0,0.0,0.0,0.17,0.0,0.0,0.0,0.0,0.0,0.0,0.17,0.00543785450468,0.0330492061135,-0.0013503990611,0.0209678132514,-0.00562233315743,-0.00124038550194,0.05,0.0,0.0,0.0,0.0,0.0,0.0,0.05,0.0,0.0,0.0,0.0,0.0,0.0,0.05,0.0,0.0,0.0,0.0,0.0,0.0,0.09,0.0,0.0,0.0,0.0,0.0,0.0,0.09,0.0,0.0,0.0,0.0,0.0,0.0,0.09
1347017838907095909,16,1347017838907095909,/odom,/base_link,0.00637124334113,-0.00690978936611,-0.00415965414451,-0.00140375582575,0.000657244609176,0.000643438347226,0.999998591742,0.1,0.0,0.0,0.0,0.0,0.0,0.0,0.1,0.0,0.0,0.0,0.0,0.0,0.0,0.1,0.0,0.0,0.0,0.0,0.0,0.0,0.17,0.0,0.0,0.0,0.0,0.0,0.0,0.17,0.0,0.0,0.0,0.0,0.0,0.0,0.17,-0.00377158484583,-0.0208890829287,-0.00511111607493,-0.0135972648523,8.09426340599e-05,-0.00293867360646,0.05,0.0,0.0,0.0,0.0,0.0,0.0,0.05,0.0,0.0,0.0,0.0,0.0,0.0,0.05,0.0,0.0,0.0,0.0,0.0,0.0,0.09,0.0,0.0,0.0,0.0,0.0,0.0,0.09,0.0,0.0,0.0,0.0,0.0,0.0,0.09
1347017839107086897,17,1347017839107086897,/odom,/base_link,0.00828173617376,-0.00631893821475,-0.00517099545789,-0.00115822535058,-7.73663345106e-05,0.000842667650916,0.999998971219,0.1,0.0,0.0,0.0,0.0,0.0,0.0,0.1,0.0,0.0,0.0,0.0,0.0,0.0,0.1,0.0,0.0,0.0,0.0,0.0,0.0,0.17,0.0,0.0,0.0,0.0,0.0,0.0,0.17,0.0,0.0,0.0,0.0,0.0,0.0,0.17,0.00956333134233,0.00295625688973,-0.00503607326311,0.00244938105871,-0.00735081012686,0.00198367897742,0.05,0.0,0.0,0.0,0.0,0.0,0.0,0.05,0.0,0.0,0.0,0.0,0.0,0.0,0.05,0.0,0.0,0.0,0.0,0.0,0.0,0.09,0.0,0.0,0.0,0.0,0.0,0.0,0.09,0.0,0.0,0.0,0.0,0.0,0.0,0.09
1347017839207082987,18,1347017839207082987,/odom,/base_link,0.00762181323843,-0.00441866713734,-0.00544182075479,-0.000566156335976,9.33631329525e-05,0.00081627064359,0.999999502226,0.1,0.0,0.0,0.0,0.0,0.0,0.0,0.1,0.0,0.0,0.0,0.0,0.0,0.0,0.1,0.0,0.0,0.0,0.0,0.0,0.0,0.17,0.0,0.0,0.0,0.0,0.0,0.0,0.17,0.0,0.0,0.0,0.0,0.0,0.0,0.17,-0.00656786116198,0.0190207711165,-0.00266329948866,0.0118446808079,0.00340535314887,-0.000524930370928,0.05,0.0,0.0,0.0,0.0,0.0,0.0,0.05,0.0,0.0,0.0,0.0,0.0,0.0,0.05,0.0,0.0,0.0,0.0,0.0,0.0,0.09,0.0,0.0,0.0,0.0,0.0,0.0,0.09,0.0,0.0,0.0,0.0,0.0,0.0,0.09
1347017839407073021,19,1347017839407073021,/odom,/base_link,0.00776918610029,-0.00665728714114,-0.00586599324053,-0.00116951362073,2.28425199015e-05,0.000716360130754,0.999999059272,0.1,0.0,0.0,0.0,0.0,0.0,0.0,0.1,0.0,0.0,0.0,0.0,0.0,0.0,0.1,0.0,0.0,0.0,0.0,0.0,0.0,0.17,0.0,0.0,0.0,0.0,0.0,0.0,0.17,0.0,0.0,0.0,0.0,0.0,0.0,0.17,0.000719025118825,-0.0111924375305,-0.0021335062227,-0.00603435578422,-0.000699749600506,-0.00100011348427,0.05,0.0,0.0,0.0,0.0,0.0,0.0,0.05,0.0,0.0,0.0,0.0,0.0,0.0,0.05,0.0,0.0,0.0,0.0,0.0,0.0,0.09,0.0,0.0,0.0,0.0,0.0,0.0,0.09,0.0,0.0,0.0,0.0,0.0,0.0,0.09
1347017839507067919,20,1347017839507067919,/odom,/base_link,0.00854684810127,-0.00648978134109,-0.00609710309432,-0.00112997664589,-0.00021087999859,0.000764500781167,0.99999904711,0.1,0.0,0.0,0.0,0.0,0.0,0.0,0.1,0.0,0.0,0.0,0.0,0.0,0.0,0.1,0.0,0.0,0.0,0.0,0.0,0.0,0.17,0.0,0.0,0.0,0.0,0.0,0.0,0.17,0.0,0.0,0.0,0.0,0.0,0.0,0.17,0.00777951818399,0.00166940038763,-0.00230694961204,0.000787408067009,-0.00467637707972,0.000957412362637,0.05,0.0,0.0,0.0,0.0,0.0,0.0,0.05,0.0,0.0,0.0,0.0,0.0,0.0,0.05,0.0,0.0,0.0,0.0,0.0,0.0,0.09,0.0,0.0,0.0,0.0,0.0,0.0,0.09,0.0,0.0,0.0,0.0,0.0,0.0,0.09
1347017839707058907,21,1347017839707058907,/odom,/base_link,0.0075004222432,-0.00515314431014,-0.0070363196477,-0.000622512399618,0.000257016014796,0.000829688893348,0.999999429019,0.1,0.0,0.0,0.0,0.0,0.0,0.0,0.1,0.0,0.0,0.0,0.0,0.0,0.0,0.1,0.0,0.0,0.0,0.0,0.0,0.0,0.17,0.0,0.0,0.0,0.0,0.0,0.0,0.17,0.0,0.0,0.0,0.0,0.0,0.0,0.17,-0.00522410883592,0.00670207413576,-0.00467896393352,0.00507858572775,0.00467455131173,0.000656124173527,0.05,0.0,0.0,0.0,0.0,0.0,0.0,0.05,0.0,0.0,0.0,0.0,0.0,0.0,0.05,0.0,0.0,0.0,0.0,0.0,0.0,0.09,0.0,0.0,0.0,0.0,0.0,0.0,0.09,0.0,0.0,0.0,0.0,0.0,0.0,0.09
1347017839807054996,22,1347017839807054996,/odom,/base_link,0.00864488762328,-0.00588852559982,-0.00754627589298,-0.000742452133885,9.06108308313e-05,0.000990811887768,0.999999229423,0.1,0.0,0.0,0.0,0.0,0.0,0.0,0.1,0.0,0.0,0.0,0.0,0.0,0.0,0.1,0.0,0.0,0.0,0.0,0.0,0.0,0.17,0.0,0.0,0.0,0.0,0.0,0.0,0.17,0.0,0.0,0.0,0.0,0.0,0.0,0.17,0.011435509986,-0.00736673293816,-0.00510304512421,-0.00240247930253,-0.00332824672528,0.00321989901166,0.05,0.0,0.0,0.0,0.0,0.0,0.0,0.05,0.0,0.0,0.0,0.0,0.0,0.0,0.05,0.0,0.0,0.0,0.0,0.0,0.0,0.09,0.0,0.0,0.0,0.0,0.0,0.0,0.09,0.0,0.0,0.0,0.0,0.0,0.0,0.09
1347017840007045984,23,1347017840007045984,/odom,/base_link,0.0104066102439,-0.00704785373173,-0.00799929197449,-0.000888953953412,6.36645031048e-05,0.00120313529977,0.999998879086,0.1,0.0,0.0,0.0,0.0,0.0,0.0,0.1,0.0,0.0,0.0,0.0,0.0,0.0,0.1,0.0,0.0,0.0,0.0,0.0,0.0,0.17,0.0,0.0,0.0,0.0,0.0,0.0,0.17,0.0,0.0,0.0,0.0,0.0,0.0,0.17,0.00879791993967,-0.00581097824103,-0.00227220539886,-0.00146554509653,-0.000269599745583,0.00212299883075,0.05,0.0,0.0,0.0,0.0,0.0,0.0,0.05,0.0,0.0,0.0,0.0,0.0,0.0,0.05,0.0,0.0,0.0,0.0,0.0,0.0,0.09,0.0,0.0,0.0,0.0,0.0,0.0,0.09,0.0,0.0,0.0,0.0,0.0,0.0,0.09
1347017840207036018,24,1347017840207036018,/odom,/base_link,0.0107668451616,-0.00684608101882,-0.00951666112917,-0.000642559765303,0.000452655318964,0.00160791114008,0.99999839842,0.1,0.0,0.0,0.0,0.0,0.0,0.0,0.1,0.0,0.0,0.0,0.0,0.0,0.0,0.1,0.0,0.0,0.0,0.0,0.0,0.0,0.17,0.0,0.0,0.0,0.0,0.0,0.0,0.17,0.0,0.0,0.0,0.0,0.0,0.0,0.17,0.00180466902095,0.00101806300266,-0.00758519238347,0.00246848039258,0.00388353513781,0.00405157660766,0.05,0.0,0.0,0.0,0.0,0.0,0.0,0.05,0.0,0.0,0.0,0.0,0.0,0.0,0.05,0.0,0.0,0.0,0.0,0.0,0.0,0.09,0.0,0.0,0.0,0.0,0.0,0.0,0.09,0.0,0.0,0.0,0.0,0.0,0.0,0.09
1347017840307030916,25,1347017840307030916,/odom,/base_link,0.0113585044904,-0.00701875157497,-0.00976593986097,-0.000665292955495,0.000622794000525,0.00170589376151,0.999998129718,0.1,0.0,0.0,0.0,0.0,0.0,0.0,0.1,0.0,0.0,0.0,0.0,0.0,0.0,0.1,0.0,0.0,0.0,0.0,0.0,0.0,0.17,0.0,0.0,0.0,0.0,0.0,0.0,0.17,0.0,0.0,0.0,0.0,0.0,0.0,0.17,0.00591357211006,-0.00174261434336,-0.00248978867954,-0.000450105185286,0.00340241609051,0.00196173870986,0.05,0.0,0.0,0.0,0.0,0.0,0.0,0.05,0.0,0.0,0.0,0.0,0.0,0.0,0.05,0.0,0.0,0.0,0.0,0.0,0.0,0.09,0.0,0.0,0.0,0.0,0.0,0.0,0.09,0.0,0.0,0.0,0.0,0.0,0.0,0.09
1347017840507022858,26,1347017840507022858,/odom,/base_link,0.0124977084286,-0.00642751742172,-0.0105204820408,-0.000346307297603,0.000831248220192,0.00163660326414,0.999998255312,0.1,0.0,0.0,0.0,0.0,0.0,0.0,0.1,0.0,0.0,0.0,0.0,0.0,0.0,0.1,0.0,0.0,0.0,0.0,0.0,0.0,0.17,0.0,0.0,0.0,0.0,0.0,0.0,0.17,0.0,0.0,0.0,0.0,0.0,0.0,0.17,0.00571100337266,0.00294184306829,-0.00376183453243,0.00319396775835,0.00207964078512,-0.000689560165173,0.05,0.0,0.0,0.0,0.0,0.0,0.0,0.05,0.0,0.0,0.0,0.0,0.0,0.0,0.05,0.0,0.0,0.0,0.0,0.0,0.0,0.09,0.0,0.0,0.0,0.0,0.0,0.0,0.09,0.0,0.0,0.0,0.0,0.0,0.0,0.09
1347017840607017040,27,1347017840607017040,/odom,/base_link,0.0127599048209,-0.00638105951357,-0.0110750359397,-0.000219358686857,0.00102663683324,0.00165606536611,0.999998077671,0.1,0.0,0.0,0.0,0.0,0.0,0.0,0.1,0.0,0.0,0.0,0.0,0.0,0.0,0.1,0.0,0.0,0.0,0.0,0.0,0.0,0.17,0.0,0.0,0.0,0.0,0.0,0.0,0.17,0.0,0.0,0.0,0.0,0.0,0.0,0.17,0.00263284553567,0.000459845337067,-0.0055411733171,0.00254518657377,0.003903705463,0.000392733833995,0.05,0.0,0.0,0.0,0.0,0.0,0.0,0.05,0.0,0.0,0.0,0.0,0.0,0.0,0.05,0.0,0.0,0.0,0.0,0.0,0.0,0.09,0.0,0.0,0.0,0.0,0.0,0.0,0.09,0.0,0.0,0.0,0.0,0.0,0.0,0.09
1347017840807008028,28,1347017840807008028,/odom,/base_link,0.0130453194581,-0.00754495769123,-0.0115466098007,-0.000485846762981,0.0014585365581,0.00178024045208,0.99999723368,0.1,0.0,0.0,0.0,0.0,0.0,0.0,0.1,0.0,0.0,0.0,0.0,0.0,0.0,0.1,0.0,0.0,0.0,0.0,0.0,0.0,0.17,0.0,0.0,0.0,0.0,0.0,0.0,0.17,0.0,0.0,0.0,0.0,0.0,0.0,0.17,0.00141269680448,-0.00582342167906,-0.00235761410756,-0.00265911971627,0.00432333344496,0.00124002992674,0.05,0.0,0.0,0.0,0.0,0.0,0.0,0.05,0.0,0.0,0.0,0.0,0.0,0.0,0.05,0.0,0.0,0.0,0.0,0.0,0.0,0.09,0.0,0.0,0.0,0.0,0.0,0.0,0.09,0.0,0.0,0.0,0.0,0.0,0.0,0.09
1347017840907003880,29,1347017840907003880,/odom,/base_link,0.0135509568749,-0.00715848003286,-0.0121260406883,-0.000224418899613,0.00155748056302,0.00174827663435,0.999997233706,0.1,0.0,0.0,0.0,0.0,0.0,0.0,0.1,0.0,0.0,0.0,0.0,0.0,0.0,0.1,0.0,0.0,0.0,0.0,0.0,0.0,0.17,0.0,0.0,0.0,0.0,0.0,0.0,0.17,0.0,0.0,0.0,0.0,0.0,0.0,0.17,0.00508719896818,0.00385250001032,-0.00577600461303,0.00523321523649,0.00196995886431,-0.000630713282869,0.05,0.0,0.0,0.0,0.0,0.0,0.0,0.05,0.0,0.0,0.0,0.0,0.0,0.0,0.05,0.0,0.0,0.0,0.0,0.0,0.0,0.09,0.0,0.0,0.0,0.0,0.0,0.0,0.09,0.0,0.0,0.0,0.0,0.0,0.0,0.09
1347017841106994867,30,1347017841106994867,/odom,/base_link,0.0149978669874,-0.00880640606064,-0.0126620166936,-0.000710875117419,0.00164794131574,0.00179962898368,0.999996770136,0.1,0.0,0.0,0.0,0.0,0.0,0.0,0.1,0.0,0.0,0.0,0.0,0.0,0.0,0.1,0.0,0.0,0.0,0.0,0.0,0.0,0.17,0.0,0.0,0.0,0.0,0.0,0.0,0.17,0.0,0.0,0.0,0.0,0.0,0.0,0.17,0.0072143416901,-0.00826406410541,-0.00266120019613,-0.00486398745655,0.000913042784783,0.000506179559009,0.05,0.0,0.0,0.0,0.0,0.0,0.0,0.05,0.0,0.0,0.0,0.0,0.0,0.0,0.05,0.0,0.0,0.0,0.0,0.0,0.0,0.09,0.0,0.0,0.0,0.0,0.0,0.0,0.09,0.0,0.0,0.0,0.0,0.0,0.0,0.09
1347017841206990004,31,1347017841206990004,/odom,/base_link,0.0145468106757,-0.0077713638657,-0.0123931807932,-0.000399453249675,0.00187035562846,0.00179919256999,0.999996552551,0.1,0.0,0.0,0.0,0.0,0.0,0.0,0.1,0.0,0.0,0.0,0.0,0.0,0.0,0.1,0.0,0.0,0.0,0.0,0.0,0.0,0.17,0.0,0.0,0.0,0.0,0.0,0.0,0.17,0.0,0.0,0.0,0.0,0.0,0.0,0.17,-0.00448236527701,0.0103632873908,0.00268839478317,0.00623673723697,0.00443729228019,4.70609021973e-06,0.05,0.0,0.0,0.0,0.0,0.0,0.0,0.05,0.0,0.0,0.0,0.0,0.0,0.0,0.05,0.0,0.0,0.0,0.0,0.0,0.0,0.09,0.0,0.0,0.0,0.0,0.0,0.0,0.09,0.0,0.0,0.0,0.0,0.0,0.0,0.09
1347017841406980038,32,1347017841406980038,/odom,/base_link,0.0139739369818,-0.00758212239284,-0.0125565050381,-0.000315675940676,0.00225539570822,0.00186018137176,0.999995676623,0.1,0.0,0.0,0.0,0.0,0.0,0.0,0.1,0.0,0.0,0.0,0.0,0.0,0.0,0.1,0.0,0.0,0.0,0.0,0.0,0.0,0.17,0.0,0.0,0.0,0.0,0.0,0.0,0.17,0.0,0.0,0.0,0.0,0.0,0.0,0.17,-0.00285801299902,0.000957206885183,-0.000826604764347,0.000843595666648,0.00384884485964,0.000613037227365,0.05,0.0,0.0,0.0,0.0,0.0,0.0,0.05,0.0,0.0,0.0,0.0,0.0,0.0,0.05,0.0,0.0,0.0,0.0,0.0,0.0,0.09,0.0,0.0,0.0,0.0,0.0,0.0,0.09,0.0,0.0,0.0,0.0,0.0,0.0,0.09
1347017841606971025,33,1347017841606971025,/odom,/base_link,0.0155101589175,-0.00958940376705,-0.0126112769889,-0.00101751072472,0.00206391035951,0.00204606793269,0.999995259265,0.1,0.0,0.0,0.0,0.0,0.0,0.0,0.1,0.0,0.0,0.0,0.0,0.0,0.0,0.1,0.0,0.0,0.0,0.0,0.0,0.0,0.17,0.0,0.0,0.0,0.0,0.0,0.0,0.17,0.0,0.0,0.0,0.0,0.0,0.0,0.17,0.0076452339279,-0.0100652057268,-0.000245649962123,-0.00702639057194,-0.00190245310753,0.00184251491769,0.05,0.0,0.0,0.0,0.0,0.0,0.0,0.05,0.0,0.0,0.0,0.0,0.0,0.0,0.05,0.0,0.0,0.0,0.0,0.0,0.0,0.09,0.0,0.0,0.0,0.0,0.0,0.0,0.09,0.0,0.0,0.0,0.0,0.0,0.0,0.09
1347017841706965923,34,1347017841706965923,/odom,/base_link,0.0156073275682,-0.00834781217751,-0.0130286605491,-0.0006335548435,0.00209658793831,0.00222242781857,0.999995131859,0.1,0.0,0.0,0.0,0.0,0.0,0.0,0.1,0.0,0.0,0.0,0.0,0.0,0.0,0.1,0.0,0.0,0.0,0.0,0.0,0.0,0.17,0.0,0.0,0.0,0.0,0.0,0.0,0.17,0.0,0.0,0.0,0.0,0.0,0.0,0.17,0.0010397245076,0.0124208981625,-0.00414462457876,0.00767352775196,0.000634285159204,0.00354388113119,0.05,0.0,0.0,0.0,0.0,0.0,0.0,0.05,0.0,0.0,0.0,0.0,0.0,0.0,0.05,0.0,0.0,0.0,0.0,0.0,0.0,0.09,0.0,0.0,0.0,0.0,0.0,0.0,0.09,0.0,0.0,0.0,0.0,0.0,0.0,0.09
1347017841906957865,35,1347017841906957865,/odom,/base_link,0.0160467692391,-0.00843730952853,-0.0132432557394,-0.000803353228492,0.00193840468092,0.00216802758874,0.999995448423,0.1,0.0,0.0,0.0,0.0,0.0,0.0,0.1,0.0,0.0,0.0,0.0,0.0,0.0,0.1,0.0,0.0,0.0,0.0,0.0,0.0,0.17,0.0,0.0,0.0,0.0,0.0,0.0,0.17,0.0,0.0,0.0,0.0,0.0,0.0,0.17,0.00219977032327,-0.000455922835578,-0.00106437267435,-0.00170041706381,-0.00157777679162,-0.00054859094339,0.05,0.0,0.0,0.0,0.0,0.0,0.0,0.05,0.0,0.0,0.0,0.0,0.0,0.0,0.05,0.0,0.0,0.0,0.0,0.0,0.0,0.09,0.0,0.0,0.0,0.0,0.0,0.0,0.09,0.0,0.0,0.0,0.0,0.0,0.0,0.09
1347017842006952047,36,1347017842006952047,/odom,/base_link,0.0170790490718,-0.00727996837283,-0.0129873094543,-0.000563210509065,0.00159762649446,0.00234092584654,0.999995825216,0.1,0.0,0.0,0.0,0.0,0.0,0.0,0.1,0.0,0.0,0.0,0.0,0.0,0.0,0.1,0.0,0.0,0.0,0.0,0.0,0.0,0.17,0.0,0.0,0.0,0.0,0.0,0.0,0.17,0.0,0.0,0.0,0.0,0.0,0.0,0.17,0.0103634419137,0.0115250754058,0.00261826829049,0.00478163767335,-0.00682913555355,0.00346196918373,0.05,0.0,0.0,0.0,0.0,0.0,0.0,0.05,0.0,0.0,0.0,0.0,0.0,0.0,0.05,0.0,0.0,0.0,0.0,0.0,0.0,0.09,0.0,0.0,0.0,0.0,0.0,0.0,0.09,0.0,0.0,0.0,0.0,0.0,0.0,0.09
1347017842206943989,37,1347017842206943989,/odom,/base_link,0.0177091388289,-0.00666553400704,-0.0118608071442,-0.000552280778387,0.00130588827861,0.00247440568794,0.999995933471,0.1,0.0,0.0,0.0,0.0,0.0,0.0,0.1,0.0,0.0,0.0,0.0,0.0,0.0,0.1,0.0,0.0,0.0,0.0,0.0,0.0,0.17,0.0,0.0,0.0,0.0,0.0,0.0,0.17,0.0,0.0,0.0,0.0,0.0,0.0,0.17,0.00314689075072,0.00305120117774,0.00564624836712,0.000100339619982,-0.00291849697455,0.00133337556794,0.05,0.0,0.0,0.0,0.0,0.0,0.0,0.05,0.0,0.0,0.0,0.0,0.0,0.0,0.05,0.0,0.0,0.0,0.0,0.0,0.0,0.09,0.0,0.0,0.0,0.0,0.0,0.0,0.09,0.0,0.0,0.0,0.0,0.0,0.0,0.09
1347017842306938887,38,1347017842306938887,/odom,/base_link,0.0168398246988,-0.00560299111542,-0.0123779615069,-0.000359568618983,0.00151721740268,0.00246466169291,0.999995747093,0.1,0.0,0.0,0.0,0.0,0.0,0.0,0.1,0.0,0.0,0.0,0.0,0.0,0.0,0.1,0.0,0.0,0.0,0.0,0.0,0.0,0.17,0.0,0.0,0.0,0.0,0.0,0.0,0.17,0.0,0.0,0.0,0.0,0.0,0.0,0.17,-0.00862735666924,0.0106745488619,-0.00518266288352,0.00386513547885,0.00421735605576,-0.000187511982794,0.05,0.0,0.0,0.0,0.0,0.0,0.0,0.05,0.0,0.0,0.0,0.0,0.0,0.0,0.05,0.0,0.0,0.0,0.0,0.0,0.0,0.09,0.0,0.0,0.0,0.0,0.0,0.0,0.09,0.0,0.0,0.0,0.0,0.0,0.0,0.09
1347017842506929874,39,1347017842506929874,/odom,/base_link,0.0173976793401,-0.00785407057872,-0.0117027438791,-0.00113159773091,0.00121093021465,0.00232300720688,0.999995928378,0.1,0.0,0.0,0.0,0.0,0.0,0.0,0.1,0.0,0.0,0.0,0.0,0.0,0.0,0.1,0.0,0.0,0.0,0.0,0.0,0.0,0.17,0.0,0.0,0.0,0.0,0.0,0.0,0.17,0.0,0.0,0.0,0.0,0.0,0.0,0.17,0.00272362978186,-0.0112719204577,0.0033765044547,-0.00772600645685,-0.00304346186757,-0.00142942256261,0.05,0.0,0.0,0.0,0.0,0.0,0.0,0.05,0.0,0.0,0.0,0.0,0.0,0.0,0.05,0.0,0.0,0.0,0.0,0.0,0.0,0.09,0.0,0.0,0.0,0.0,0.0,0.0,0.09,0.0,0.0,0.0,0.0,0.0,0.0,0.09
1347017842606925011,40,1347017842606925011,/odom,/base_link,0.0170747058742,-0.00814567185806,-0.0115361840175,-0.00127157296476,0.0011639624541,0.00216327833699,0.999996174253,0.1,0.0,0.0,0.0,0.0,0.0,0.0,0.1,0.0,0.0,0.0,0.0,0.0,0.0,0.1,0.0,0.0,0.0,0.0,0.0,0.0,0.17,0.0,0.0,0.0,0.0,0.0,0.0,0.17,0.0,0.0,0.0,0.0,0.0,0.0,0.17,-0.00324743063088,-0.00290486112234,0.00165124892551,-0.00279793751828,-0.000929284293337,-0.00319918439254,0.05,0.0,0.0,0.0,0.0,0.0,0.0,0.05,0.0,0.0,0.0,0.0,0.0,0.0,0.05,0.0,0.0,0.0,0.0,0.0,0.0,0.09,0.0,0.0,0.0,0.0,0.0,0.0,0.09,0.0,0.0,0.0,0.0,0.0,0.0,0.09
1347017842806915998,41,1347017842806915998,/odom,/base_link,0.0174615371746,-0.0105016004804,-0.0113422141685,-0.00211894574699,0.00101195646937,0.00211911863574,0.999994997662,0.1,0.0,0.0,0.0,0.0,0.0,0.0,0.1,0.0,0.0,0.0,0.0,0.0,0.0,0.1,0.0,0.0,0.0,0.0,0.0,0.0,0.17,0.0,0.0,0.0,0.0,0.0,0.0,0.17,0.0,0.0,0.0,0.0,0.0,0.0,0.17,0.00188102463437,-0.0117908616276,0.000944361392775,-0.00847686773488,-0.00150121562033,-0.000453386326127,0.05,0.0,0.0,0.0,0.0,0.0,0.0,0.05,0.0,0.0,0.0,0.0,0.0,0.0,0.05,0.0,0.0,0.0,0.0,0.0,0.0,0.09,0.0,0.0,0.0,0.0,0.0,0.0,0.09,0.0,0.0,0.0,0.0,0.0,0.0,0.09
1347017842906911850,42,1347017842906911850,/odom,/base_link,0.017944543229,-0.00829286221511,-0.0113982588749,-0.00152079039621,0.00088432687399,0.00239447824505,0.999995585808,0.1,0.0,0.0,0.0,0.0,0.0,0.0,0.1,0.0,0.0,0.0,0.0,0.0,0.0,0.1,0.0,0.0,0.0,0.0,0.0,0.0,0.17,0.0,0.0,0.0,0.0,0.0,0.0,0.17,0.0,0.0,0.0,0.0,0.0,0.0,0.17,0.00492486725539,0.0220697825361,-0.000457029451023,0.011952586503,-0.00258971934262,0.00551406618706,0.05,0.0,0.0,0.0,0.0,0.0,0.0,0.05,0.0,0.0,0.0,0.0,0.0,0.0,0.05,0.0,0.0,0.0,0.0,0.0,0.0,0.09,0.0,0.0,0.0,0.0,0.0,0.0,0.09,0.0,0.0,0.0,0.0,0.0,0.0,0.09
1347017843106901884,43,1347017843106901884,/odom,/base_link,0.0188650911803,-0.00868097266836,-0.0110949336491,-0.00177576341628,0.000781510532826,0.00263830448367,0.999994637613,0.1,0.0,0.0,0.0,0.0,0.0,0.0,0.1,0.0,0.0,0.0,0.0,0.0,0.0,0.1,0.0,0.0,0.0,0.0,0.0,0.0,0.17,0.0,0.0,0.0,0.0,0.0,0.0,0.17,0.0,0.0,0.0,0.0,0.0,0.0,0.17,0.00459092716336,-0.00196728016815,0.00151888898421,-0.00255447884871,-0.00102580443941,0.00243457728127,0.05,0.0,0.0,0.0,0.0,0.0,0.0,0.05,0.0,0.0,0.0,0.0,0.0,0.0,0.05,0.0,0.0,0.0,0.0,0.0,0.0,0.09,0.0,0.0,0.0,0.0,0.0,0.0,0.09,0.0,0.0,0.0,0.0,0.0,0.0,0.09
1347017843206897020,44,1347017843206897020,/odom,/base_link,0.0190683706546,-0.0075150101214,-0.0109748729808,-0.00140675705561,0.000837716626722,0.00259432165127,0.999995294369,0.1,0.0,0.0,0.0,0.0,0.0,0.0,0.1,0.0,0.0,0.0,0.0,0.0,0.0,0.1,0.0,0.0,0.0,0.0,0.0,0.0,0.17,0.0,0.0,0.0,0.0,0.0,0.0,0.17,0.0,0.0,0.0,0.0,0.0,0.0,0.17,0.00209246851734,0.0116449651695,0.00124527378331,0.00738412353755,0.00110625045818,-0.000871965196615,0.05,0.0,0.0,0.0,0.0,0.0,0.0,0.05,0.0,0.0,0.0,0.0,0.0,0.0,0.05,0.0,0.0,0.0,0.0,0.0,0.0,0.09,0.0,0.0,0.0,0.0,0.0,0.0,0.09,0.0,0.0,0.0,0.0,0.0,0.0,0.09
1347017843406888008,45,1347017843406888008,/odom,/base_link,0.0203318920246,-0.0087404242659,-0.010913530633,-0.00161080741017,0.000778627349497,0.00289046827515,0.999994222099,0.1,0.0,0.0,0.0,0.0,0.0,0.0,0.1,0.0,0.0,0.0,0.0,0.0,0.0,0.1,0.0,0.0,0.0,0.0,0.0,0.0,0.17,0.0,0.0,0.0,0.0,0.0,0.0,0.17,0.0,0.0,0.0,0.0,0.0,0.0,0.17,0.00628550346141,-0.00616089775043,0.000299997027463,-0.00204461503922,-0.000589779938752,0.00295907291667,0.05,0.0,0.0,0.0,0.0,0.0,0.0,0.05,0.0,0.0,0.0,0.0,0.0,0.0,0.05,0.0,0.0,0.0,0.0,0.0,0.0,0.09,0.0,0.0,0.0,0.0,0.0,0.0,0.09,0.0,0.0,0.0,0.0,0.0,0.0,0.09
1347017843606878042,46,1347017843606878042,/odom,/base_link,0.0221079557065,-0.00596378429239,-0.0108975174614,-0.000661509182968,0.000686353413609,0.00312736301763,0.999994655448,0.1,0.0,0.0,0.0,0.0,0.0,0.0,0.1,0.0,0.0,0.0,0.0,0.0,0.0,0.1,0.0,0.0,0.0,0.0,0.0,0.0,0.17,0.0,0.0,0.0,0.0,0.0,0.0,0.17,0.0,0.0,0.0,0.0,0.0,0.0,0.17,0.00896070294783,0.0138319689703,0.000138606951381,0.00948889708568,-0.000954040177072,0.0023749450774,0.05,0.0,0.0,0.0,0.0,0.0,0.0,0.05,0.0,0.0,0.0,0.0,0.0,0.0,0.05,0.0,0.0,0.0,0.0,0.0,0.0,0.09,0.0,0.0,0.0,0.0,0.0,0.0,0.09,0.0,0.0,0.0,0.0,0.0,0.0,0.09
1347017843706874847,47,1347017843706874847,/odom,/base_link,0.0225727110912,-0.00841938985524,-0.0110540364446,-0.00134927178866,0.000740659983107,0.00325261879506,0.999993525659,0.1,0.0,0.0,0.0,0.0,0.0,0.0,0.1,0.0,0.0,0.0,0.0,0.0,0.0,0.1,0.0,0.0,0.0,0.0,0.0,0.0,0.17,0.0,0.0,0.0,0.0,0.0,0.0,0.17,0.0,0.0,0.0,0.0,0.0,0.0,0.17,0.00449618894173,-0.0245833484357,-0.00159147072701,-0.0137539567783,0.00112753772077,0.00249653031543,0.05,0.0,0.0,0.0,0.0,0.0,0.0,0.05,0.0,0.0,0.0,0.0,0.0,0.0,0.05,0.0,0.0,0.0,0.0,0.0,0.0,0.09,0.0,0.0,0.0,0.0,0.0,0.0,0.09,0.0,0.0,0.0,0.0,0.0,0.0,0.09
1347017843906864882,48,1347017843906864882,/odom,/base_link,0.0232479795695,-0.00657244169853,-0.0106330834749,-0.000624403010177,0.00107528487334,0.00340827857177,0.999993418739,0.1,0.0,0.0,0.0,0.0,0.0,0.0,0.1,0.0,0.0,0.0,0.0,0.0,0.0,0.1,0.0,0.0,0.0,0.0,0.0,0.0,0.17,0.0,0.0,0.0,0.0,0.0,0.0,0.17,0.0,0.0,0.0,0.0,0.0,0.0,0.17,0.00343335736652,0.00920733037874,0.0021347977015,0.00725873304099,0.0033207163588,0.0015665532054,0.05,0.0,0.0,0.0,0.0,0.0,0.0,0.05,0.0,0.0,0.0,0.0,0.0,0.0,0.05,0.0,0.0,0.0,0.0,0.0,0.0,0.09,0.0,0.0,0.0,0.0,0.0,0.0,0.09,0.0,0.0,0.0,0.0,0.0,0.0,0.09
1347017844006860971,49,1347017844006860971,/odom,/base_link,0.0228395175134,-0.00823981879254,-0.0104796585283,-0.00106669145529,0.00145785324295,0.00329299282764,0.999992946491,0.1,0.0,0.0,0.0,0.0,0.0,0.0,0.1,0.0,0.0,0.0,0.0,0.0,0.0,0.1,0.0,0.0,0.0,0.0,0.0,0.0,0.17,0.0,0.0,0.0,0.0,0.0,0.0,0.17,0.0,0.0,0.0,0.0,0.0,0.0,0.17,-0.0042016211378,-0.0166480780384,0.00150459236562,-0.00881750466602,0.00768321667785,-0.0023104922018,0.05,0.0,0.0,0.0,0.0,0.0,0.0,0.05,0.0,0.0,0.0,0.0,0.0,0.0,0.05,0.0,0.0,0.0,0.0,0.0,0.0,0.09,0.0,0.0,0.0,0.0,0.0,0.0,0.09,0.0,0.0,0.0,0.0,0.0,0.0,0.09
1347017844206850052,50,1347017844206850052,/odom,/base_link,0.0245660356025,-0.00794263680019,-0.010536137361,-0.000751356804149,0.00141423110248,0.00328836993635,0.999993310996,0.1,0.0,0.0,0.0,0.0,0.0,0.0,0.1,0.0,0.0,0.0,0.0,0.0,0.0,0.1,0.0,0.0,0.0,0.0,0.0,0.0,0.17,0.0,0.0,0.0,0.0,0.0,0.0,0.17,0.0,0.0,0.0,0.0,0.0,0.0,0.17,0.00864344526788,0.00142967158216,-0.000254112658082,0.00315213122207,-0.000446582665887,-4.21110868901e-05,0.05,0.0,0.0,0.0,0.0,0.0,0.0,0.05,0.0,0.0,0.0,0.0,0.0,0.0,0.05,0.0,0.0,0.0,0.0,0.0,0.0,0.09,0.0,0.0,0.0,0.0,0.0,0.0,0.09,0.0,0.0,0.0,0.0,0.0,0.0,0.09
1347017844306846857,51,1347017844306846857,/odom,/base_link,0.0235962944997,-0.00828513101769,-0.0100566179244,-0.000767442685684,0.00184845166322,0.00317821910065,0.999992946566,0.1,0.0,0.0,0.0,0.0,0.0,0.0,0.1,0.0,0.0,0.0,0.0,0.0,0.0,0.1,0.0,0.0,0.0,0.0,0.0,0.0,0.17,0.0,0.0,0.0,0.0,0.0,0.0,0.17,0.0,0.0,0.0,0.0,0.0,0.0,0.17,-0.00973357765691,-0.00336833547939,0.00476276275563,-0.000290057100615,0.00868735446267,-0.00219697816926,0.05,0.0,0.0,0.0,0.0,0.0,0.0,0.05,0.0,0.0,0.0,0.0,0.0,0.0,0.05,0.0,0.0,0.0,0.0,0.0,0.0,0.09,0.0,0.0,0.0,0.0,0.0,0.0,0.09,0.0,0.0,0.0,0.0,0.0,0.0,0.09
1347017844506836891,52,1347017844506836891,/odom,/base_link,0.0244781796007,-0.00878748836649,-0.0098576861737,-0.000645295364954,0.00209622014414,0.00302502741446,0.999993019308,0.1,0.0,0.0,0.0,0.0,0.0,0.0,0.1,0.0,0.0,0.0,0.0,0.0,0.0,0.1,0.0,0.0,0.0,0.0,0.0,0.0,0.17,0.0,0.0,0.0,0.0,0.0,0.0,0.17,0.0,0.0,0.0,0.0,0.0,0.0,0.17,0.0043898842794,-0.00254141522338,0.00100709577299,0.00123223287179,0.00247508291132,-0.00152782520982,0.05,0.0,0.0,0.0,0.0,0.0,0.0,0.05,0.0,0.0,0.0,0.0,0.0,0.0,0.05,0.0,0.0,0.0,0.0,0.0,0.0,0.09,0.0,0.0,0.0,0.0,0.0,0.0,0.09,0.0,0.0,0.0,0.0,0.0,0.0,0.09
1347017844606832981,53,1347017844606832981,/odom,/base_link,0.0242947319185,-0.00878293183792,-0.0098773939898,-0.000464681378537,0.00225610512074,0.00303414631076,0.999992743982,0.1,0.0,0.0,0.0,0.0,0.0,0.0,0.1,0.0,0.0,0.0,0.0,0.0,0.0,0.1,0.0,0.0,0.0,0.0,0.0,0.0,0.17,0.0,0.0,0.0,0.0,0.0,0.0,0.17,0.0,0.0,0.0,0.0,0.0,0.0,0.17,-0.00183339626284,5.69220564131e-05,-0.000204708604302,0.0036216834275,0.00318676845451,0.000192036415055,0.05,0.0,0.0,0.0,0.0,0.0,0.0,0.05,0.0,0.0,0.0,0.0,0.0,0.0,0.05,0.0,0.0,0.0,0.0,0.0,0.0,0.09,0.0,0.0,0.0,0.0,0.0,0.0,0.09,0.0,0.0,0.0,0.0,0.0,0.0,0.09
1347017844806823969,54,1347017844806823969,/odom,/base_link,0.0253703911453,-0.0099632852286,-0.00977844891213,-0.000820652841384,0.00219140363605,0.00251552364675,0.999994098192,0.1,0.0,0.0,0.0,0.0,0.0,0.0,0.1,0.0,0.0,0.0,0.0,0.0,0.0,0.1,0.0,0.0,0.0,0.0,0.0,0.0,0.17,0.0,0.0,0.0,0.0,0.0,0.0,0.17,0.0,0.0,0.0,0.0,0.0,0.0,0.17,0.00534034829493,-0.00593502429071,0.000513430292586,-0.00355010517589,-0.00063385867054,-0.00519479626731,0.05,0.0,0.0,0.0,0.0,0.0,0.0,0.05,0.0,0.0,0.0,0.0,0.0,0.0,0.05,0.0,0.0,0.0,0.0,0.0,0.0,0.09,0.0,0.0,0.0,0.0,0.0,0.0,0.09,0.0,0.0,0.0,0.0,0.0,0.0,0.09
1347017845006814003,55,1347017845006814003,/odom,/base_link,0.0250184592228,-0.0101111425304,-0.00956934887083,-0.000863580342805,0.00251497198786,0.0026629857798,0.999992918801,0.1,0.0,0.0,0.0,0.0,0.0,0.0,0.1,0.0,0.0,0.0,0.0,0.0,0.0,0.1,0.0,0.0,0.0,0.0,0.0,0.0,0.17,0.0,0.0,0.0,0.0,0.0,0.0,0.17,0.0,0.0,0.0,0.0,0.0,0.0,0.17,-0.00176801176227,-0.000732157881436,0.00103661393432,-0.000424395368244,0.00323572127136,0.00147643055561,0.05,0.0,0.0,0.0,0.0,0.0,0.0,0.05,0.0,0.0,0.0,0.0,0.0,0.0,0.05,0.0,0.0,0.0,0.0,0.0,0.0,0.09,0.0,0.0,0.0,0.0,0.0,0.0,0.09,0.0,0.0,0.0,0.0,0.0,0.0,0.09
1347017845106808901,56,1347017845106808901,/odom,/base_link,0.0258744435417,-0.0117971321376,-0.00944241409422,-0.00142781278309,0.00236104284344,0.00283162249787,0.99999218434,0.1,0.0,0.0,0.0,0.0,0.0,0.0,0.1,0.0,0.0,0.0,0.0,0.0,0.0,0.1,0.0,0.0,0.0,0.0,0.0,0.0,0.17,0.0,0.0,0.0,0.0,0.0,0.0,0.17,0.0,0.0,0.0,0.0,0.0,0.0,0.17,0.00846393333445,-0.0169082961529,0.00128306575782,-0.0113018394547,-0.00305154179118,0.00334188112522,0.05,0.0,0.0,0.0,0.0,0.0,0.0,0.05,0.0,0.0,0.0,0.0,0.0,0.0,0.05,0.0,0.0,0.0,0.0,0.0,0.0,0.09,0.0,0.0,0.0,0.0,0.0,0.0,0.09,0.0,0.0,0.0,0.0,0.0,0.0,0.09
1347017845206804991,57,1347017845206804991,/odom,/base_link,0.0258843540964,-0.00856308686496,-0.00815094071351,-0.000516650798,0.00234338219605,0.0028701229203,0.999993001989,0.1,0.0,0.0,0.0,0.0,0.0,0.0,0.1,0.0,0.0,0.0,0.0,0.0,0.0,0.1,0.0,0.0,0.0,0.0,0.0,0.0,0.17,0.0,0.0,0.0,0.0,0.0,0.0,0.17,0.0,0.0,0.0,0.0,0.0,0.0,0.17,0.00022095548778,0.032303796733,0.0130082968984,0.0182210174042,-0.000405965490269,0.00081250953455,0.05,0.0,0.0,0.0,0.0,0.0,0.0,0.05,0.0,0.0,0.0,0.0,0.0,0.0,0.05,0.0,0.0,0.0,0.0,0.0,0.0,0.09,0.0,0.0,0.0,0.0,0.0,0.0,0.09,0.0,0.0,0.0,0.0,0.0,0.0,0.09
1347017845406795025,58,1347017845406795025,/odom,/base_link,0.0278227217809,-0.00956387801064,-0.00788387052303,-0.000997997777493,0.00169436458263,0.00301833448276,0.999993511372,0.1,0.0,0.0,0.0,0.0,0.0,0.0,0.1,0.0,0.0,0.0,0.0,0.0,0.0,0.1,0.0,0.0,0.0,0.0,0.0,0.0,0.17,0.0,0.0,0.0,0.0,0.0,0.0,0.17,0.0,0.0,0.0,0.0,0.0,0.0,0.17,0.0096570795054,-0.00506114127439,0.00137556054954,-0.00483577575589,-0.00647741663739,0.00146753097095,0.05,0.0,0.0,0.0,0.0,0.0,0.0,0.05,0.0,0.0,0.0,0.0,0.0,0.0,0.05,0.0,0.0,0.0,0.0,0.0,0.0,0.09,0.0,0.0,0.0,0.0,0.0,0.0,0.09,0.0,0.0,0.0,0.0,0.0,0.0,0.09
1347017845606786966,59,1347017845606786966,/odom,/base_link,0.0281820782407,-0.00856784177431,-0.00691515781388,-0.000992635218787,0.00151985961136,0.00314112561965,0.999993418994,0.1,0.0,0.0,0.0,0.0,0.0,0.0,0.1,0.0,0.0,0.0,0.0,0.0,0.0,0.1,0.0,0.0,0.0,0.0,0.0,0.0,0.17,0.0,0.0,0.0,0.0,0.0,0.0,0.17,0.0,0.0,0.0,0.0,0.0,0.0,0.17,0.00181041626275,0.00495980966111,0.00485979115025,4.62785090847e-05,-0.00174649452615,0.00122630491893,0.05,0.0,0.0,0.0,0.0,0.0,0.0,0.05,0.0,0.0,0.0,0.0,0.0,0.0,0.05,0.0,0.0,0.0,0.0,0.0,0.0,0.09,0.0,0.0,0.0,0.0,0.0,0.0,0.09,0.0,0.0,0.0,0.0,0.0,0.0,0.09
1347017845706780910,60,1347017845706780910,/odom,/base_link,0.0283378539404,-0.00937769686888,-0.00645636107903,-0.00136484279535,0.00142997022515,0.0031748452517,0.999993006349,0.1,0.0,0.0,0.0,0.0,0.0,0.0,0.1,0.0,0.0,0.0,0.0,0.0,0.0,0.1,0.0,0.0,0.0,0.0,0.0,0.0,0.17,0.0,0.0,0.0,0.0,0.0,0.0,0.17,0.0,0.0,0.0,0.0,0.0,0.0,0.17,0.00149298246347,-0.00811772213027,0.00457678464559,-0.00745123422235,-0.00177515730763,0.000661355581623,0.05,0.0,0.0,0.0,0.0,0.0,0.0,0.05,0.0,0.0,0.0,0.0,0.0,0.0,0.05,0.0,0.0,0.0,0.0,0.0,0.0,0.09,0.0,0.0,0.0,0.0,0.0,0.0,0.09,0.0,0.0,0.0,0.0,0.0,0.0,0.09
1347017845906771898,61,1347017845906771898,/odom,/base_link,0.0282589713843,-0.0075420114929,-0.00525834679559,-0.00114947253567,0.00129862786663,0.00345932672514,0.999992512641,0.1,0.0,0.0,0.0,0.0,0.0,0.0,0.1,0.0,0.0,0.0,0.0,0.0,0.0,0.1,0.0,0.0,0.0,0.0,0.0,0.0,0.17,0.0,0.0,0.0,0.0,0.0,0.0,0.17,0.0,0.0,0.0,0.0,0.0,0.0,0.17,-0.000353358242701,0.00916483003443,0.00601430842044,0.00214553960888,-0.00132418743683,0.00284622594651,0.05,0.0,0.0,0.0,0.0,0.0,0.0,0.05,0.0,0.0,0.0,0.0,0.0,0.0,0.05,0.0,0.0,0.0,0.0,0.0,0.0,0.09,0.0,0.0,0.0,0.0,0.0,0.0,0.09,0.0,0.0,0.0,0.0,0.0,0.0,0.09
1347017846106762886,62,1347017846106762886,/odom,/base_link,0.0278954881773,-0.00686862458492,-0.00472879665151,-0.00119833947362,0.00124618711241,0.0039026133793,0.999990890263,0.1,0.0,0.0,0.0,0.0,0.0,0.0,0.1,0.0,0.0,0.0,0.0,0.0,0.0,0.1,0.0,0.0,0.0,0.0,0.0,0.0,0.17,0.0,0.0,0.0,0.0,0.0,0.0,0.17,0.0,0.0,0.0,0.0,0.0,0.0,0.17,-0.0018010610273,0.00337351327417,0.0026509190288,-0.000496277489503,-0.000527811339401,0.00443185193144,0.05,0.0,0.0,0.0,0.0,0.0,0.0,0.05,0.0,0.0,0.0,0.0,0.0,0.0,0.05,0.0,0.0,0.0,0.0,0.0,0.0,0.09,0.0,0.0,0.0,0.0,0.0,0.0,0.09,0.0,0.0,0.0,0.0,0.0,0.0,0.09
1347017846206758022,63,1347017846206758022,/odom,/base_link,0.0277079816219,-0.00786062908774,-0.00405152328478,-0.0017057088779,0.00119389217429,0.00366343198949,0.999991122183,0.1,0.0,0.0,0.0,0.0,0.0,0.0,0.1,0.0,0.0,0.0,0.0,0.0,0.0,0.1,0.0,0.0,0.0,0.0,0.0,0.0,0.17,0.0,0.0,0.0,0.0,0.0,0.0,0.17,0.0,0.0,0.0,0.0,0.0,0.0,0.17,-0.00196943965516,-0.00992172222245,0.0067444940111,-0.0101459045642,-0.00100060999501,-0.00479773482223,0.05,0.0,0.0,0.0,0.0,0.0,0.0,0.05,0.0,0.0,0.0,0.0,0.0,0.0,0.05,0.0,0.0,0.0,0.0,0.0,0.0,0.09,0.0,0.0,0.0,0.0,0.0,0.0,0.09,0.0,0.0,0.0,0.0,0.0,0.0,0.09
1347017846406749010,64,1347017846406749010,/odom,/base_link,0.0296259123838,-0.00736828532454,-0.00334151711334,-0.00177316344706,0.000413319457549,0.00381070625854,0.999991081748,0.1,0.0,0.0,0.0,0.0,0.0,0.0,0.1,0.0,0.0,0.0,0.0,0.0,0.0,0.1,0.0,0.0,0.0,0.0,0.0,0.0,0.17,0.0,0.0,0.0,0.0,0.0,0.0,0.17,0.0,0.0,0.0,0.0,0.0,0.0,0.17,0.00959930710896,0.00237936563004,0.00358135884165,-0.000704926278092,-0.00780605087263,0.0014586773467,0.05,0.0,0.0,0.0,0.0,0.0,0.0,0.05,0.0,0.0,0.0,0.0,0.0,0.0,0.05,0.0,0.0,0.0,0.0,0.0,0.0,0.09,0.0,0.0,0.0,0.0,0.0,0.0,0.09,0.0,0.0,0.0,0.0,0.0,0.0,0.09
1347017846606739998,65,1347017846606739998,/odom,/base_link,0.0286338045881,-0.00829065639967,-0.0029349660984,-0.00217322278528,0.000556847060088,0.00342173781115,0.999991629332,0.1,0.0,0.0,0.0,0.0,0.0,0.0,0.1,0.0,0.0,0.0,0.0,0.0,0.0,0.1,0.0,0.0,0.0,0.0,0.0,0.0,0.17,0.0,0.0,0.0,0.0,0.0,0.0,0.17,0.0,0.0,0.0,0.0,0.0,0.0,0.17,-0.00499746798995,-0.00458128796486,0.002012429248,-0.00399365107146,0.00145746884868,-0.003888954647,0.05,0.0,0.0,0.0,0.0,0.0,0.0,0.05,0.0,0.0,0.0,0.0,0.0,0.0,0.05,0.0,0.0,0.0,0.0,0.0,0.0,0.09,0.0,0.0,0.0,0.0,0.0,0.0,0.09,0.0,0.0,0.0,0.0,0.0,0.0,0.09
1347017846706734896,66,1347017846706734896,/odom,/base_link,0.028993416304,-0.0084578009429,-0.0024694051514,-0.0021561960939,0.000427570003381,0.00344571806928,0.99999164748,0.1,0.0,0.0,0.0,0.0,0.0,0.0,0.1,0.0,0.0,0.0,0.0,0.0,0.0,0.1,0.0,0.0,0.0,0.0,0.0,0.0,0.17,0.0,0.0,0.0,0.0,0.0,0.0,0.17,0.0,0.0,0.0,0.0,0.0,0.0,0.17,0.003579524871,-0.00171631395114,0.0046524802793,0.000331434566355,-0.00258785924252,0.000474194769633,0.05,0.0,0.0,0.0,0.0,0.0,0.0,0.05,0.0,0.0,0.0,0.0,0.0,0.0,0.05,0.0,0.0,0.0,0.0,0.0,0.0,0.09,0.0,0.0,0.0,0.0,0.0,0.0,0.09,0.0,0.0,0.0,0.0,0.0,0.0,0.09
1347017846906725883,67,1347017846906725883,/odom,/base_link,0.0287661821422,-0.00875919590485,-0.00254552478342,-0.00228964179878,0.000446095787074,0.00299903913666,0.999992782126,0.1,0.0,0.0,0.0,0.0,0.0,0.0,0.1,0.0,0.0,0.0,0.0,0.0,0.0,0.1,0.0,0.0,0.0,0.0,0.0,0.0,0.17,0.0,0.0,0.0,0.0,0.0,0.0,0.17,0.0,0.0,0.0,0.0,0.0,0.0,0.17,-0.00114624630729,-0.00149752046712,-0.000388069717191,-0.00133193329812,0.000199489871882,-0.00446716371065,0.05,0.0,0.0,0.0,0.0,0.0,0.0,0.05,0.0,0.0,0.0,0.0,0.0,0.0,0.05,0.0,0.0,0.0,0.0,0.0,0.0,0.09,0.0,0.0,0.0,0.0,0.0,0.0,0.09,0.0,0.0,0.0,0.0,0.0,0.0,0.09
1347017847106716871,68,1347017847106716871,/odom,/base_link,0.0286261704886,-0.00934867732563,-0.00157370967359,-0.00206936293961,0.000579859740682,0.00264113195761,0.999994202944,0.1,0.0,0.0,0.0,0.0,0.0,0.0,0.1,0.0,0.0,0.0,0.0,0.0,0.0,0.1,0.0,0.0,0.0,0.0,0.0,0.0,0.17,0.0,0.0,0.0,0.0,0.0,0.0,0.17,0.0,0.0,0.0,0.0,0.0,0.0,0.17,-0.00072215249332,-0.00296549432518,0.00484512121997,0.00220851305315,0.00133927247708,-0.00357520441236,0.05,0.0,0.0,0.0,0.0,0.0,0.0,0.05,0.0,0.0,0.0,0.0,0.0,0.0,0.05,0.0,0.0,0.0,0.0,0.0,0.0,0.09,0.0,0.0,0.0,0.0,0.0,0.0,0.09,0.0,0.0,0.0,0.0,0.0,0.0,0.09
1347017847206712008,69,1347017847206712008,/odom,/base_link,0.0296228113649,-0.00934299524868,-0.00199858173358,-0.00183980936107,0.000408744263933,0.00266716767083,0.999994667109,0.1,0.0,0.0,0.0,0.0,0.0,0.0,0.1,0.0,0.0,0.0,0.0,0.0,0.0,0.1,0.0,0.0,0.0,0.0,0.0,0.0,0.17,0.0,0.0,0.0,0.0,0.0,0.0,0.17,0.0,0.0,0.0,0.0,0.0,0.0,0.17,0.00997202169923,2.17229064188e-05,-0.00423720284201,0.00458194633619,-0.00343566537416,0.000516292018613,0.05,0.0,0.0,0.0,0.0,0.0,0.0,0.05,0.0,0.0,0.0,0.0,0.0,0.0,0.05,0.0,0.0,0.0,0.0,0.0,0.0,0.09,0.0,0.0,0.0,0.0,0.0,0.0,0.09,0.0,0.0,0.0,0.0,0.0,0.0,0.09
1347017847406702995,70,1347017847406702995,/odom,/base_link,0.0292055150504,-0.0102705129407,-0.00190710500711,-0.00146617630073,0.000826725706104,0.00231840529743,0.999995895916,0.1,0.0,0.0,0.0,0.0,0.0,0.0,0.1,0.0,0.0,0.0,0.0,0.0,0.0,0.1,0.0,0.0,0.0,0.0,0.0,0.0,0.17,0.0,0.0,0.0,0.0,0.0,0.0,0.17,0.0,0.0,0.0,0.0,0.0,0.0,0.17,-0.00211165608918,-0.00462824857493,0.000438640383854,0.00374907632234,0.00417642676527,-0.00347857765872,0.05,0.0,0.0,0.0,0.0,0.0,0.0,0.05,0.0,0.0,0.0,0.0,0.0,0.0,0.05,0.0,0.0,0.0,0.0,0.0,0.0,0.09,0.0,0.0,0.0,0.0,0.0,0.0,0.09,0.0,0.0,0.0,0.0,0.0,0.0,0.09
1347017847506697893,71,1347017847506697893,/odom,/base_link,0.029111775462,-0.0127362967269,-0.00144031495365,-0.00178956281741,0.000997879612382,0.0019888310587,0.999995923118,0.1,0.0,0.0,0.0,0.0,0.0,0.0,0.1,0.0,0.0,0.0,0.0,0.0,0.0,0.1,0.0,0.0,0.0,0.0,0.0,0.0,0.17,0.0,0.0,0.0,0.0,0.0,0.0,0.17,0.0,0.0,0.0,0.0,0.0,0.0,0.17,-0.00105946190724,-0.0246680465398,0.0045941652189,-0.0064546471359,0.00344789877703,-0.00659212378276,0.05,0.0,0.0,0.0,0.0,0.0,0.0,0.05,0.0,0.0,0.0,0.0,0.0,0.0,0.05,0.0,0.0,0.0,0.0,0.0,0.0,0.09,0.0,0.0,0.0,0.0,0.0,0.0,0.09,0.0,0.0,0.0,0.0,0.0,0.0,0.09
1347017847706688881,72,1347017847706688881,/odom,/base_link,0.0280038744229,-0.0165124544958,-0.00133850531208,-0.00204910641242,0.00162221493166,0.00149112661308,0.999995473051,0.1,0.0,0.0,0.0,0.0,0.0,0.0,0.1,0.0,0.0,0.0,0.0,0.0,0.0,0.1,0.0,0.0,0.0,0.0,0.0,0.0,0.17,0.0,0.0,0.0,0.0,0.0,0.0,0.17,0.0,0.0,0.0,0.0,0.0,0.0,0.17,-0.00561575660249,-0.0188611343754,0.000430395903419,-0.00257816643214,0.00625768355427,-0.00496865674559,0.05,0.0,0.0,0.0,0.0,0.0,0.0,0.05,0.0,0.0,0.0,0.0,0.0,0.0,0.05,0.0,0.0,0.0,0.0,0.0,0.0,0.09,0.0,0.0,0.0,0.0,0.0,0.0,0.09,0.0,0.0,0.0,0.0,0.0,0.0,0.09
1347017847906679869,73,1347017847906679869,/odom,/base_link,0.0291019887622,-0.0182079296325,-0.00167697925648,-0.00155694664269,0.00153940014927,0.00134243773116,0.999996702007,0.1,0.0,0.0,0.0,0.0,0.0,0.0,0.1,0.0,0.0,0.0,0.0,0.0,0.0,0.1,0.0,0.0,0.0,0.0,0.0,0.0,0.17,0.0,0.0,0.0,0.0,0.0,0.0,0.17,0.0,0.0,0.0,0.0,0.0,0.0,0.17,0.00547104079216,-0.0084871324559,-0.00170942643285,0.00492299983327,-0.000832493493026,-0.00148068027368,0.05,0.0,0.0,0.0,0.0,0.0,0.0,0.05,0.0,0.0,0.0,0.0,0.0,0.0,0.05,0.0,0.0,0.0,0.0,0.0,0.0,0.09,0.0,0.0,0.0,0.0,0.0,0.0,0.09,0.0,0.0,0.0,0.0,0.0,0.0,0.09
1347017848006675959,74,1347017848006675959,/odom,/base_link,0.0298252868008,-0.0195855178934,-0.0016634867659,-0.00159325503584,0.00140346408933,0.00127284717325,0.999996935839,0.1,0.0,0.0,0.0,0.0,0.0,0.0,0.1,0.0,0.0,0.0,0.0,0.0,0.0,0.1,0.0,0.0,0.0,0.0,0.0,0.0,0.17,0.0,0.0,0.0,0.0,0.0,0.0,0.17,0.0,0.0,0.0,0.0,0.0,0.0,0.17,0.00719586505197,-0.0137961794413,0.000114213247313,-0.000727693801618,-0.00271568381297,-0.00139721824876,0.05,0.0,0.0,0.0,0.0,0.0,0.0,0.05,0.0,0.0,0.0,0.0,0.0,0.0,0.05,0.0,0.0,0.0,0.0,0.0,0.0,0.09,0.0,0.0,0.0,0.0,0.0,0.0,0.09,0.0,0.0,0.0,0.0,0.0,0.0,0.09
1347017848206665993,75,1347017848206665993,/odom,/base_link,0.0296305292849,-0.0225910445808,-0.00175291337553,-0.0013931419486,0.00157871921998,0.000992099424588,0.999997291266,0.1,0.0,0.0,0.0,0.0,0.0,0.0,0.1,0.0,0.0,0.0,0.0,0.0,0.0,0.1,0.0,0.0,0.0,0.0,0.0,0.0,0.17,0.0,0.0,0.0,0.0,0.0,0.0,0.17,0.0,0.0,0.0,0.0,0.0,0.0,0.17,-0.00101076251264,-0.0150243506079,-0.000497822466096,0.0020074014059,0.00175455431498,-0.00280201232528,0.05,0.0,0.0,0.0,0.0,0.0,0.0,0.05,0.0,0.0,0.0,0.0,0.0,0.0,0.05,0.0,0.0,0.0,0.0,0.0,0.0,0.09,0.0,0.0,0.0,0.0,0.0,0.0,0.09,0.0,0.0,0.0,0.0,0.0,0.0,0.09
1347017848306661844,76,1347017848306661844,/odom,/base_link,0.0296197518306,-0.0264328761011,-0.00192421689927,-0.00224804524905,0.00165598688259,0.000802714396206,0.999995779816,0.1,0.0,0.0,0.0,0.0,0.0,0.0,0.1,0.0,0.0,0.0,0.0,0.0,0.0,0.1,0.0,0.0,0.0,0.0,0.0,0.0,0.17,0.0,0.0,0.0,0.0,0.0,0.0,0.17,0.0,0.0,0.0,0.0,0.0,0.0,0.17,-0.000178428049855,-0.0384147023303,-0.00182059996639,-0.0170912602652,0.00156770182102,-0.00381265914468,0.05,0.0,0.0,0.0,0.0,0.0,0.0,0.05,0.0,0.0,0.0,0.0,0.0,0.0,0.05,0.0,0.0,0.0,0.0,0.0,0.0,0.09,0.0,0.0,0.0,0.0,0.0,0.0,0.09,0.0,0.0,0.0,0.0,0.0,0.0,0.09
1347017848506651878,77,1347017848506651878,/odom,/base_link,0.0289821011078,-0.028775493324,-0.00120533547267,-0.0014877208186,0.00194876453246,0.000433918563521,0.999996900354,0.1,0.0,0.0,0.0,0.0,0.0,0.0,0.1,0.0,0.0,0.0,0.0,0.0,0.0,0.1,0.0,0.0,0.0,0.0,0.0,0.0,0.17,0.0,0.0,0.0,0.0,0.0,0.0,0.17,0.0,0.0,0.0,0.0,0.0,0.0,0.17,-0.00321902716458,-0.0117245457898,0.00353128517884,0.00761207511119,0.00293007944704,-0.00366896242441,0.05,0.0,0.0,0.0,0.0,0.0,0.0,0.05,0.0,0.0,0.0,0.0,0.0,0.0,0.05,0.0,0.0,0.0,0.0,0.0,0.0,0.09,0.0,0.0,0.0,0.0,0.0,0.0,0.09,0.0,0.0,0.0,0.0,0.0,0.0,0.09
1347017848606647968,78,1347017848606647968,/odom,/base_link,0.0291826374949,-0.030608993632,-0.00227277869422,-0.00125157372784,0.00191389865715,0.000377693323569,0.999997313948,0.1,0.0,0.0,0.0,0.0,0.0,0.0,0.1,0.0,0.0,0.0,0.0,0.0,0.0,0.1,0.0,0.0,0.0,0.0,0.0,0.0,0.17,0.0,0.0,0.0,0.0,0.0,0.0,0.17,0.0,0.0,0.0,0.0,0.0,0.0,0.17,0.00203123943543,-0.0183056397176,-0.0107214953183,0.00472501309275,-0.000697735176021,-0.00111638207663,0.05,0.0,0.0,0.0,0.0,0.0,0.0,0.05,0.0,0.0,0.0,0.0,0.0,0.0,0.05,0.0,0.0,0.0,0.0,0.0,0.0,0.09,0.0,0.0,0.0,0.0,0.0,0.0,0.09,0.0,0.0,0.0,0.0,0.0,0.0,0.09
1347017848806638956,79,1347017848806638956,/odom,/base_link,0.0283315784183,-0.0394128931118,-0.00257160668919,-0.00208436871868,0.00216103339343,0.000199906684439,0.999995472679,0.1,0.0,0.0,0.0,0.0,0.0,0.0,0.1,0.0,0.0,0.0,0.0,0.0,0.0,0.1,0.0,0.0,0.0,0.0,0.0,0.0,0.17,0.0,0.0,0.0,0.0,0.0,0.0,0.17,0.0,0.0,0.0,0.0,0.0,0.0,0.17,-0.00428277607813,-0.0440143575657,-0.00162073235684,-0.0083239906862,0.00247685843841,-0.00179078136749,0.05,0.0,0.0,0.0,0.0,0.0,0.0,0.05,0.0,0.0,0.0,0.0,0.0,0.0,0.05,0.0,0.0,0.0,0.0,0.0,0.0,0.09,0.0,0.0,0.0,0.0,0.0,0.0,0.09,0.0,0.0,0.0,0.0,0.0,0.0,0.09
1347017848906633854,80,1347017848906633854,/odom,/base_link,0.0283237459713,-0.0453058442564,-0.00204205248187,-0.00271211563814,0.00213309661144,-0.000101307193865,0.999994042014,0.1,0.0,0.0,0.0,0.0,0.0,0.0,0.1,0.0,0.0,0.0,0.0,0.0,0.0,0.1,0.0,0.0,0.0,0.0,0.0,0.0,0.17,0.0,0.0,0.0,0.0,0.0,0.0,0.17,0.0,0.0,0.0,0.0,0.0,0.0,0.17,-0.000124251883642,-0.0589540415502,0.0050496543107,-0.0125426751621,-0.000543632424293,-0.00605285013073,0.05,0.0,0.0,0.0,0.0,0.0,0.0,0.05,0.0,0.0,0.0,0.0,0.0,0.0,0.05,0.0,0.0,0.0,0.0,0.0,0.0,0.09,0.0,0.0,0.0,0.0,0.0,0.0,0.09,0.0,0.0,0.0,0.0,0.0,0.0,0.09
1347017849106624842,81,1347017849106624842,/odom,/base_link,0.0284019872115,-0.0530984175386,-0.002006038965,-0.0021003537022,0.00189271565903,-0.000416360093137,0.999995916385,0.1,0.0,0.0,0.0,0.0,0.0,0.0,0.1,0.0,0.0,0.0,0.0,0.0,0.0,0.1,0.0,0.0,0.0,0.0,0.0,0.0,0.17,0.0,0.0,0.0,0.0,0.0,0.0,0.17,0.0,0.0,0.0,0.0,0.0,0.0,0.17,0.000398797709593,-0.0389649502469,-2.95943703831e-05,0.00612487418114,-0.00239477894738,-0.00314412021189,0.05,0.0,0.0,0.0,0.0,0.0,0.0,0.05,0.0,0.0,0.0,0.0,0.0,0.0,0.05,0.0,0.0,0.0,0.0,0.0,0.0,0.09,0.0,0.0,0.0,0.0,0.0,0.0,0.09,0.0,0.0,0.0,0.0,0.0,0.0,0.09
1347017849206619978,82,1347017849206619978,/odom,/base_link,0.0272990735799,-0.0609628333583,-0.00236368022522,-0.00260398699091,0.002188540361,-0.000574403587629,0.999994049784,0.1,0.0,0.0,0.0,0.0,0.0,0.0,0.1,0.0,0.0,0.0,0.0,0.0,0.0,0.1,0.0,0.0,0.0,0.0,0.0,0.0,0.17,0.0,0.0,0.0,0.0,0.0,0.0,0.17,0.0,0.0,0.0,0.0,0.0,0.0,0.17,-0.0109499405326,-0.0786413295876,-0.00394855243593,-0.0100696742195,0.0059192739011,-0.00316766475628,0.05,0.0,0.0,0.0,0.0,0.0,0.0,0.05,0.0,0.0,0.0,0.0,0.0,0.0,0.05,0.0,0.0,0.0,0.0,0.0,0.0,0.09,0.0,0.0,0.0,0.0,0.0,0.0,0.09,0.0,0.0,0.0,0.0,0.0,0.0,0.09
1347017849406610012,83,1347017849406610012,/odom,/base_link,0.0269308054096,-0.0738722844348,-0.00108771522571,-0.00251494992206,0.00212109070989,-0.00117290794634,0.999993900125,0.1,0.0,0.0,0.0,0.0,0.0,0.0,0.1,0.0,0.0,0.0,0.0,0.0,0.0,0.1,0.0,0.0,0.0,0.0,0.0,0.0,0.17,0.0,0.0,0.0,0.0,0.0,0.0,0.17,0.0,0.0,0.0,0.0,0.0,0.0,0.17,-0.00179442956157,-0.0645848918478,0.00603591683339,0.000903892532931,-0.000658425664651,-0.00598511521004,0.05,0.0,0.0,0.0,0.0,0.0,0.0,0.05,0.0,0.0,0.0,0.0,0.0,0.0,0.05,0.0,0.0,0.0,0.0,0.0,0.0,0.09,0.0,0.0,0.0,0.0,0.0,0.0,0.09,0.0,0.0,0.0,0.0,0.0,0.0,0.09
1347017849606601954,84,1347017849606601954,/odom,/base_link,0.0265384569832,-0.0915100624801,-0.00186811013594,-0.00275666801141,0.00207357378537,-0.00140225326755,0.999993067355,0.1,0.0,0.0,0.0,0.0,0.0,0.0,0.1,0.0,0.0,0.0,0.0,0.0,0.0,0.1,0.0,0.0,0.0,0.0,0.0,0.0,0.17,0.0,0.0,0.0,0.0,0.0,0.0,0.17,0.0,0.0,0.0,0.0,0.0,0.0,0.17,-0.00173744480728,-0.0881760197,-0.00435353885305,-0.00241186236027,-0.000472234928869,-0.00229986378178,0.05,0.0,0.0,0.0,0.0,0.0,0.0,0.05,0.0,0.0,0.0,0.0,0.0,0.0,0.05,0.0,0.0,0.0,0.0,0.0,0.0,0.09,0.0,0.0,0.0,0.0,0.0,0.0,0.09,0.0,0.0,0.0,0.0,0.0,0.0,0.09
1347017849706596851,85,1347017849706596851,/odom,/base_link,0.0258422676141,-0.100952303827,-0.0019952439898,-0.00257661459335,0.00218361564989,-0.00161793506151,0.999992987558,0.1,0.0,0.0,0.0,0.0,0.0,0.0,0.1,0.0,0.0,0.0,0.0,0.0,0.0,0.1,0.0,0.0,0.0,0.0,0.0,0.0,0.17,0.0,0.0,0.0,0.0,0.0,0.0,0.17,0.0,0.0,0.0,0.0,0.0,0.0,0.17,-0.00669099941664,-0.0944378545187,-0.00182035658475,0.00360708163265,0.00221787942646,-0.00430029366377,0.05,0.0,0.0,0.0,0.0,0.0,0.0,0.05,0.0,0.0,0.0,0.0,0.0,0.0,0.05,0.0,0.0,0.0,0.0,0.0,0.0,0.09,0.0,0.0,0.0,0.0,0.0,0.0,0.09,0.0,0.0,0.0,0.0,0.0,0.0,0.09
1347017849906586885,86,1347017849906586885,/odom,/base_link,0.025250086715,-0.121186221552,-0.00277279112988,-0.00196737599563,0.00207230338634,-0.00159833034857,0.999994640151,0.1,0.0,0.0,0.0,0.0,0.0,0.0,0.1,0.0,0.0,0.0,0.0,0.0,0.0,0.1,0.0,0.0,0.0,0.0,0.0,0.0,0.17,0.0,0.0,0.0,0.0,0.0,0.0,0.17,0.0,0.0,0.0,0.0,0.0,0.0,0.17,-0.00261553720032,-0.101162242548,-0.00442145444376,0.0060940627614,-0.00110385404471,0.000206518137908,0.05,0.0,0.0,0.0,0.0,0.0,0.0,0.05,0.0,0.0,0.0,0.0,0.0,0.0,0.05,0.0,0.0,0.0,0.0,0.0,0.0,0.09,0.0,0.0,0.0,0.0,0.0,0.0,0.09,0.0,0.0,0.0,0.0,0.0,0.0,0.09
1347017850006582975,87,1347017850006582975,/odom,/base_link,0.024590202333,-0.135416084025,-0.00388337901088,-0.00245155615402,0.00222181355343,-0.00170479937024,0.999993073514,0.1,0.0,0.0,0.0,0.0,0.0,0.0,0.1,0.0,0.0,0.0,0.0,0.0,0.0,0.1,0.0,0.0,0.0,0.0,0.0,0.0,0.17,0.0,0.0,0.0,0.0,0.0,0.0,0.17,0.0,0.0,0.0,0.0,0.0,0.0,0.17,-0.00609699412557,-0.142279627398,-0.0116925097402,-0.00968435861034,0.00297908055606,-0.00214368752377,0.05,0.0,0.0,0.0,0.0,0.0,0.0,0.05,0.0,0.0,0.0,0.0,0.0,0.0,0.05,0.0,0.0,0.0,0.0,0.0,0.0,0.09,0.0,0.0,0.0,0.0,0.0,0.0,0.09,0.0,0.0,0.0,0.0,0.0,0.0,0.09
1347017850206573009,88,1347017850206573009,/odom,/base_link,0.023395032004,-0.160337889913,-0.00481669431978,-0.00153800190412,0.00241792494314,-0.00168225563396,0.999994479087,0.1,0.0,0.0,0.0,0.0,0.0,0.0,0.1,0.0,0.0,0.0,0.0,0.0,0.0,0.1,0.0,0.0,0.0,0.0,0.0,0.0,0.17,0.0,0.0,0.0,0.0,0.0,0.0,0.17,0.0,0.0,0.0,0.0,0.0,0.0,0.17,-0.00552911473773,-0.124610410706,-0.00530336672792,0.00913212587781,0.0019761894401,0.000250577539283,0.05,0.0,0.0,0.0,0.0,0.0,0.0,0.05,0.0,0.0,0.0,0.0,0.0,0.0,0.05,0.0,0.0,0.0,0.0,0.0,0.0,0.09,0.0,0.0,0.0,0.0,0.0,0.0,0.09,0.0,0.0,0.0,0.0,0.0,0.0,0.09
1347017850306568861,89,1347017850306568861,/odom,/base_link,0.0229049411155,-0.173113280244,-0.00592271503826,-0.000843445363972,0.00250150091305,-0.00176001117952,0.999994966714,0.1,0.0,0.0,0.0,0.0,0.0,0.0,0.1,0.0,0.0,0.0,0.0,0.0,0.0,0.1,0.0,0.0,0.0,0.0,0.0,0.0,0.17,0.0,0.0,0.0,0.0,0.0,0.0,0.17,0.0,0.0,0.0,0.0,0.0,0.0,0.17,-0.0044168018265,-0.127740216093,-0.0114761568846,0.0138925947416,0.00169731733058,-0.00151899054077,0.05,0.0,0.0,0.0,0.0,0.0,0.0,0.05,0.0,0.0,0.0,0.0,0.0,0.0,0.05,0.0,0.0,0.0,0.0,0.0,0.0,0.09,0.0,0.0,0.0,0.0,0.0,0.0,0.09,0.0,0.0,0.0,0.0,0.0,0.0,0.09
1347017850406564951,90,1347017850406564951,/odom,/base_link,0.0232475361433,-0.185911540963,-0.00663539242497,4.8460856693e-05,0.00227773221428,-0.0017045557691,0.99999595203,0.1,0.0,0.0,0.0,0.0,0.0,0.0,0.1,0.0,0.0,0.0,0.0,0.0,0.0,0.1,0.0,0.0,0.0,0.0,0.0,0.0,0.17,0.0,0.0,0.0,0.0,0.0,0.0,0.17,0.0,0.0,0.0,0.0,0.0,0.0,0.17,0.00391271251572,-0.127962505856,-0.00732457546213,0.0178438537419,-0.00444511535149,0.00115002978908,0.05,0.0,0.0,0.0,0.0,0.0,0.0,0.05,0.0,0.0,0.0,0.0,0.0,0.0,0.05,0.0,0.0,0.0,0.0,0.0,0.0,0.09,0.0,0.0,0.0,0.0,0.0,0.0,0.09,0.0,0.0,0.0,0.0,0.0,0.0,0.09
1347017850606554985,91,1347017850606554985,/odom,/base_link,0.0208762940551,-0.21380905971,-0.00752955653527,0.00141020520552,0.00250560017067,-0.00175931830267,0.999994319028,0.1,0.0,0.0,0.0,0.0,0.0,0.0,0.1,0.0,0.0,0.0,0.0,0.0,0.0,0.1,0.0,0.0,0.0,0.0,0.0,0.0,0.17,0.0,0.0,0.0,0.0,0.0,0.0,0.17,0.0,0.0,0.0,0.0,0.0,0.0,0.17,-0.0113607212606,-0.139534555719,-0.00451040481266,0.0136154351538,0.00230200813035,-0.000516770406474,0.05,0.0,0.0,0.0,0.0,0.0,0.0,0.05,0.0,0.0,0.0,0.0,0.0,0.0,0.05,0.0,0.0,0.0,0.0,0.0,0.0,0.09,0.0,0.0,0.0,0.0,0.0,0.0,0.09,0.0,0.0,0.0,0.0,0.0,0.0,0.09
1347017850706550837,92,1347017850706550837,/odom,/base_link,0.0202667282498,-0.227616965342,-0.00789102148924,0.00220144197148,0.00238166136301,-0.00202159975055,0.999992697212,0.1,0.0,0.0,0.0,0.0,0.0,0.0,0.1,0.0,0.0,0.0,0.0,0.0,0.0,0.1,0.0,0.0,0.0,0.0,0.0,0.0,0.17,0.0,0.0,0.0,0.0,0.0,0.0,0.17,0.0,0.0,0.0,0.0,0.0,0.0,0.17,-0.00559277272119,-0.138115035608,-0.00325458617943,0.0158428546033,-0.00245833972867,-0.0052027266057,0.05,0.0,0.0,0.0,0.0,0.0,0.0,0.05,0.0,0.0,0.0,0.0,0.0,0.0,0.05,0.0,0.0,0.0,0.0,0.0,0.0,0.09,0.0,0.0,0.0,0.0,0.0,0.0,0.09,0.0,0.0,0.0,0.0,0.0,0.0,0.09
1347017850906540871,93,1347017850906540871,/odom,/base_link,0.0198619979917,-0.254663214459,-0.00917305214769,0.00358350434546,0.00177696461409,-0.00196081828875,0.999990077993,0.1,0.0,0.0,0.0,0.0,0.0,0.0,0.1,0.0,0.0,0.0,0.0,0.0,0.0,0.1,0.0,0.0,0.0,0.0,0.0,0.0,0.17,0.0,0.0,0.0,0.0,0.0,0.0,0.17,0.0,0.0,0.0,0.0,0.0,0.0,0.17,-0.001447748619,-0.135271934503,-0.00582322448738,0.0138320519164,-0.00601788526773,0.000654018160922,0.05,0.0,0.0,0.0,0.0,0.0,0.0,0.05,0.0,0.0,0.0,0.0,0.0,0.0,0.05,0.0,0.0,0.0,0.0,0.0,0.0,0.09,0.0,0.0,0.0,0.0,0.0,0.0,0.09,0.0,0.0,0.0,0.0,0.0,0.0,0.09
1347017851006536007,94,1347017851006536007,/odom,/base_link,0.0188767748089,-0.2673011454,-0.0094651884397,0.00437426580279,0.00165173104525,-0.00183061764696,0.999987393132,0.1,0.0,0.0,0.0,0.0,0.0,0.0,0.1,0.0,0.0,0.0,0.0,0.0,0.0,0.1,0.0,0.0,0.0,0.0,0.0,0.0,0.17,0.0,0.0,0.0,0.0,0.0,0.0,0.17,0.0,0.0,0.0,0.0,0.0,0.0,0.17,-0.00934812597493,-0.126440920715,-0.00204961115674,0.0158163196591,-0.00246432896071,0.00264108906393,0.05,0.0,0.0,0.0,0.0,0.0,0.0,0.05,0.0,0.0,0.0,0.0,0.0,0.0,0.05,0.0,0.0,0.0,0.0,0.0,0.0,0.09,0.0,0.0,0.0,0.0,0.0,0.0,0.09,0.0,0.0,0.0,0.0,0.0,0.0,0.09
1347017851206527948,95,1347017851206527948,/odom,/base_link,0.0177585898397,-0.294155033483,-0.0092855076048,0.00464685906452,0.00122550946205,-0.00164532171274,0.999987098789,0.1,0.0,0.0,0.0,0.0,0.0,0.0,0.1,0.0,0.0,0.0,0.0,0.0,0.0,0.1,0.0,0.0,0.0,0.0,0.0,0.0,0.17,0.0,0.0,0.0,0.0,0.0,0.0,0.17,0.0,0.0,0.0,0.0,0.0,0.0,0.17,-0.00510439915036,-0.13428150913,0.00205552569588,0.00273076319257,-0.00424923318864,0.00187615285679,0.05,0.0,0.0,0.0,0.0,0.0,0.0,0.05,0.0,0.0,0.0,0.0,0.0,0.0,0.05,0.0,0.0,0.0,0.0,0.0,0.0,0.09,0.0,0.0,0.0,0.0,0.0,0.0,0.09,0.0,0.0,0.0,0.0,0.0,0.0,0.09
1347017851306522846,96,1347017851306522846,/odom,/base_link,0.0156867136535,-0.305667930226,-0.00879890547452,0.00501400261158,0.00146689663144,-0.00139427833129,0.999985381883,0.1,0.0,0.0,0.0,0.0,0.0,0.0,0.1,0.0,0.0,0.0,0.0,0.0,0.0,0.1,0.0,0.0,0.0,0.0,0.0,0.0,0.17,0.0,0.0,0.0,0.0,0.0,0.0,0.17,0.0,0.0,0.0,0.0,0.0,0.0,0.17,-0.020354094656,-0.115152457093,0.00588605888802,0.00732921371173,0.00486338417276,0.00500756697138,0.05,0.0,0.0,0.0,0.0,0.0,0.0,0.05,0.0,0.0,0.0,0.0,0.0,0.0,0.05,0.0,0.0,0.0,0.0,0.0,0.0,0.09,0.0,0.0,0.0,0.0,0.0,0.0,0.09,0.0,0.0,0.0,0.0,0.0,0.0,0.09
1347017851506512880,97,1347017851506512880,/odom,/base_link,0.0128403375109,-0.332419425617,-0.00755208217808,0.00376885818767,0.00178057104554,-0.000983250526217,0.999990829205,0.1,0.0,0.0,0.0,0.0,0.0,0.0,0.1,0.0,0.0,0.0,0.0,0.0,0.0,0.1,0.0,0.0,0.0,0.0,0.0,0.0,0.17,0.0,0.0,0.0,0.0,0.0,0.0,0.17,0.0,0.0,0.0,0.0,0.0,0.0,0.17,-0.0138798149959,-0.133734301337,0.0075344460511,-0.0124625629835,0.00314002396565,0.00407650565925,0.05,0.0,0.0,0.0,0.0,0.0,0.0,0.05,0.0,0.0,0.0,0.0,0.0,0.0,0.05,0.0,0.0,0.0,0.0,0.0,0.0,0.09,0.0,0.0,0.0,0.0,0.0,0.0,0.09,0.0,0.0,0.0,0.0,0.0,0.0,0.09
1347017851606508970,98,1347017851606508970,/odom,/base_link,0.0132133968951,-0.345269105188,-0.00615568366862,0.00294117207179,0.00146295797701,-0.000826335712725,0.999994263199,0.1,0.0,0.0,0.0,0.0,0.0,0.0,0.1,0.0,0.0,0.0,0.0,0.0,0.0,0.1,0.0,0.0,0.0,0.0,0.0,0.0,0.17,0.0,0.0,0.0,0.0,0.0,0.0,0.17,0.0,0.0,0.0,0.0,0.0,0.0,0.17,0.0039318480909,-0.128385323781,0.0149463551094,-0.016553820938,-0.00635702348577,0.00313292363295,0.05,0.0,0.0,0.0,0.0,0.0,0.0,0.05,0.0,0.0,0.0,0.0,0.0,0.0,0.05,0.0,0.0,0.0,0.0,0.0,0.0,0.09,0.0,0.0,0.0,0.0,0.0,0.0,0.09,0.0,0.0,0.0,0.0,0.0,0.0,0.09
