%time,field.header.seq,field.header.stamp,field.header.frame_id,field.child_frame_id,field.pose.pose.position.x,field.pose.pose.position.y,field.pose.pose.position.z,field.pose.pose.orientation.x,field.pose.pose.orientation.y,field.pose.pose.orientation.z,field.pose.pose.orientation.w,field.pose.covariance0,field.pose.covariance1,field.pose.covariance2,field.pose.covariance3,field.pose.covariance4,field.pose.covariance5,field.pose.covariance6,field.pose.covariance7,field.pose.covariance8,field.pose.covariance9,field.pose.covariance10,field.pose.covariance11,field.pose.covariance12,field.pose.covariance13,field.pose.covariance14,field.pose.covariance15,field.pose.covariance16,field.pose.covariance17,field.pose.covariance18,field.pose.covariance19,field.pose.covariance20,field.pose.covariance21,field.pose.covariance22,field.pose.covariance23,field.pose.covariance24,field.pose.covariance25,field.pose.covariance26,field.pose.covariance27,field.pose.covariance28,field.pose.covariance29,field.pose.covariance30,field.pose.covariance31,field.pose.covariance32,field.pose.covariance33,field.pose.covariance34,field.pose.covariance35,field.twist.twist.linear.x,field.twist.twist.linear.y,field.twist.twist.linear.z,field.twist.twist.angular.x,field.twist.twist.angular.y,field.twist.twist.angular.z,field.twist.covariance0,field.twist.covariance1,field.twist.covariance2,field.twist.covariance3,field.twist.covariance4,field.twist.covariance5,field.twist.covariance6,field.twist.covariance7,field.twist.covariance8,field.twist.covariance9,field.twist.covariance10,field.twist.covariance11,field.twist.covariance12,field.twist.covariance13,field.twist.covariance14,field.twist.covariance15,field.twist.covariance16,field.twist.covariance17,field.twist.covariance18,field.twist.covariance19,field.twist.covariance20,field.twist.covariance21,field.twist.covariance22,field.twist.covariance23,field.twist.covariance24,field.twist.covariance25,field.twist.covariance26,field.twist.covariance27,field.twist.covariance28,field.twist.covariance29,field.twist.covariance30,field.twist.covariance31,field.twist.covariance32,field.twist.covariance33,field.twist.covariance34,field.twist.covariance35
1336386844327849865,0,1336386844327849865,/odom,/base_link,-0.00342151160679,-0.00464152940426,-0.00102320947895,0.000268521810439,0.00100483372613,-0.00180433711448,0.999997831284,0.1,0.0,0.0,0.0,0.0,0.0,0.0,0.1,0.0,0.0,0.0,0.0,0.0,0.0,0.1,0.0,0.0,0.0,0.0,0.0,0.0,0.17,0.0,0.0,0.0,0.0,0.0,0.0,0.17,0.0,0.0,0.0,0.0,0.0,0.0,0.17,0.0,0.0,0.0,0.0,0.0,0.0,0.05,0.0,0.0,0.0,0.0,0.0,0.0,0.05,0.0,0.0,0.0,0.0,0.0,0.0,0.05,0.0,0.0,0.0,0.0,0.0,0.0,0.09,0.0,0.0,0.0,0.0,0.0,0.0,0.09,0.0,0.0,0.0,0.0,0.0,0.0,0.09
1336386845816405058,1,1336386845816405058,/odom,/base_link,-0.017954380988,-0.00617031701525,-0.00150571347306,0.0027974156164,-0.003680647808,-0.0091030609443,0.999947879431,0.1,0.0,0.0,0.0,0.0,0.0,0.0,0.1,0.0,0.0,0.0,0.0,0.0,0.0,0.1,0.0,0.0,0.0,0.0,0.0,0.0,0.17,0.0,0.0,0.0,0.0,0.0,0.0,0.17,0.0,0.0,0.0,0.0,0.0,0.0,0.17,-0.00975862989647,-0.00106243083166,-0.000343197534051,0.0034190529942,-0.00629184835899,-0.00980158227917,0.05,0.0,0.0,0.0,0.0,0.0,0.0,0.05,0.0,0.0,0.0,0.0,0.0,0.0,0.05,0.0,0.0,0.0,0.0,0.0,0.0,0.09,0.0,0.0,0.0,0.0,0.0,0.0,0.09,0.0,0.0,0.0,0.0,0.0,0.0,0.09
1336386846114115000,2,1336386846114115000,/odom,/base_link,-0.0207580918223,-0.00270144641814,-0.000999404137216,0.00269483335521,-0.00453441084726,-0.0102987327677,0.999933054307,0.1,0.0,0.0,0.0,0.0,0.0,0.0,0.1,0.0,0.0,0.0,0.0,0.0,0.0,0.1,0.0,0.0,0.0,0.0,0.0,0.0,0.17,0.0,0.0,0.0,0.0,0.0,0.0,0.17,0.0,0.0,0.0,0.0,0.0,0.0,0.17,-0.00961570815409,0.0114881067534,0.00170600305774,-0.000666181771391,-0.00576434911634,-0.00801437118532,0.05,0.0,0.0,0.0,0.0,0.0,0.0,0.05,0.0,0.0,0.0,0.0,0.0,0.0,0.05,0.0,0.0,0.0,0.0,0.0,0.0,0.09,0.0,0.0,0.0,0.0,0.0,0.0,0.09,0.0,0.0,0.0,0.0,0.0,0.0,0.09
1336386846213351965,3,1336386846213351965,/odom,/base_link,-0.0210743720086,-0.00342974437672,-0.000242731931088,0.00219658320069,-0.00482929699836,-0.0111697638531,0.999923541721,0.1,0.0,0.0,0.0,0.0,0.0,0.0,0.1,0.0,0.0,0.0,0.0,0.0,0.0,0.1,0.0,0.0,0.0,0.0,0.0,0.0,0.17,0.0,0.0,0.0,0.0,0.0,0.0,0.17,0.0,0.0,0.0,0.0,0.0,0.0,0.17,-0.00296625895644,-0.0073610744115,0.00769242340268,-0.0100588306811,-0.00609426593541,-0.0174938231852,0.05,0.0,0.0,0.0,0.0,0.0,0.0,0.05,0.0,0.0,0.0,0.0,0.0,0.0,0.05,0.0,0.0,0.0,0.0,0.0,0.0,0.09,0.0,0.0,0.0,0.0,0.0,0.0,0.09,0.0,0.0,0.0,0.0,0.0,0.0,0.09
1336386846312588930,4,1336386846312588930,/odom,/base_link,-0.0218227316587,-0.00432815493174,0.000965881587728,0.00154304297451,-0.00491791289444,-0.0119355735228,0.999915484046,0.1,0.0,0.0,0.0,0.0,0.0,0.0,0.1,0.0,0.0,0.0,0.0,0.0,0.0,0.1,0.0,0.0,0.0,0.0,0.0,0.0,0.17,0.0,0.0,0.0,0.0,0.0,0.0,0.17,0.0,0.0,0.0,0.0,0.0,0.0,0.17,-0.00721945805593,-0.00916431622641,0.0122903737912,-0.0132245312763,-0.00196761569318,-0.0153670652316,0.05,0.0,0.0,0.0,0.0,0.0,0.0,0.05,0.0,0.0,0.0,0.0,0.0,0.0,0.05,0.0,0.0,0.0,0.0,0.0,0.0,0.09,0.0,0.0,0.0,0.0,0.0,0.0,0.09,0.0,0.0,0.0,0.0,0.0,0.0,0.09
1336386846411825895,5,1336386846411825895,/odom,/base_link,-0.0237492806271,-0.00236417179574,-0.000480496371436,0.00159474599802,-0.00458801806843,-0.0128301470172,0.999905892673,0.1,0.0,0.0,0.0,0.0,0.0,0.0,0.1,0.0,0.0,0.0,0.0,0.0,0.0,0.1,0.0,0.0,0.0,0.0,0.0,0.0,0.17,0.0,0.0,0.0,0.0,0.0,0.0,0.17,0.0,0.0,0.0,0.0,0.0,0.0,0.17,-0.0200226507552,0.0192753308957,-0.0144413172112,0.000874201297864,0.0066317337495,-0.0180452075723,0.05,0.0,0.0,0.0,0.0,0.0,0.0,0.05,0.0,0.0,0.0,0.0,0.0,0.0,0.05,0.0,0.0,0.0,0.0,0.0,0.0,0.09,0.0,0.0,0.0,0.0,0.0,0.0,0.09,0.0,0.0,0.0,0.0,0.0,0.0,0.09
1336386846511062860,6,1336386846511062860,/odom,/base_link,-0.025515740466,-0.00250317891274,0.000174625560875,0.00117579846359,-0.00419968657406,-0.0137028100071,0.999896601219,0.1,0.0,0.0,0.0,0.0,0.0,0.0,0.1,0.0,0.0,0.0,0.0,0.0,0.0,0.1,0.0,0.0,0.0,0.0,0.0,0.0,0.17,0.0,0.0,0.0,0.0,0.0,0.0,0.17,0.0,0.0,0.0,0.0,0.0,0.0,0.17,-0.0176975504823,-0.00183492080907,0.0067696330194,-0.00862338972568,0.00768837610183,-0.0175619515555,0.05,0.0,0.0,0.0,0.0,0.0,0.0,0.05,0.0,0.0,0.0,0.0,0.0,0.0,0.05,0.0,0.0,0.0,0.0,0.0,0.0,0.09,0.0,0.0,0.0,0.0,0.0,0.0,0.09,0.0,0.0,0.0,0.0,0.0,0.0,0.09
1336386846610299826,7,1336386846610299826,/odom,/base_link,-0.025816434063,0.000860977777234,-0.000765215988391,0.00154604130311,-0.00403096980404,-0.0144756050311,0.99988590244,0.1,0.0,0.0,0.0,0.0,0.0,0.0,0.1,0.0,0.0,0.0,0.0,0.0,0.0,0.1,0.0,0.0,0.0,0.0,0.0,0.0,0.17,0.0,0.0,0.0,0.0,0.0,0.0,0.17,0.0,0.0,0.0,0.0,0.0,0.0,0.17,-0.00403734168283,0.0337810518012,-0.00952058386021,0.00734927329575,0.0034829587887,-0.0156114224707,0.05,0.0,0.0,0.0,0.0,0.0,0.0,0.05,0.0,0.0,0.0,0.0,0.0,0.0,0.05,0.0,0.0,0.0,0.0,0.0,0.0,0.09,0.0,0.0,0.0,0.0,0.0,0.0,0.09,0.0,0.0,0.0,0.0,0.0,0.0,0.09
1336386846709537029,8,1336386846709537029,/odom,/base_link,-0.027258857431,0.000738881436409,-0.000743230600418,0.00110550009814,-0.003516686264,-0.0151688843155,0.999878150444,0.1,0.0,0.0,0.0,0.0,0.0,0.0,0.1,0.0,0.0,0.0,0.0,0.0,0.0,0.1,0.0,0.0,0.0,0.0,0.0,0.0,0.17,0.0,0.0,0.0,0.0,0.0,0.0,0.17,0.0,0.0,0.0,0.0,0.0,0.0,0.17,-0.0144911359216,-0.00164969591457,0.000343014245217,-0.00908365342006,0.0102127979953,-0.0139530696259,0.05,0.0,0.0,0.0,0.0,0.0,0.0,0.05,0.0,0.0,0.0,0.0,0.0,0.0,0.05,0.0,0.0,0.0,0.0,0.0,0.0,0.09,0.0,0.0,0.0,0.0,0.0,0.0,0.09,0.0,0.0,0.0,0.0,0.0,0.0,0.09
1336386846808773994,9,1336386846808773994,/odom,/base_link,-0.0272308761146,-0.000305654437357,-0.00020250749483,0.000568181769445,-0.00326784807503,-0.0156037477038,0.999872752602,0.1,0.0,0.0,0.0,0.0,0.0,0.0,0.1,0.0,0.0,0.0,0.0,0.0,0.0,0.1,0.0,0.0,0.0,0.0,0.0,0.0,0.17,0.0,0.0,0.0,0.0,0.0,0.0,0.17,0.0,0.0,0.0,0.0,0.0,0.0,0.17,0.000639332372365,-0.0104996256563,0.00546881335835,-0.0109344499602,0.00484008446143,-0.00873218622286,0.05,0.0,0.0,0.0,0.0,0.0,0.0,0.05,0.0,0.0,0.0,0.0,0.0,0.0,0.05,0.0,0.0,0.0,0.0,0.0,0.0,0.09,0.0,0.0,0.0,0.0,0.0,0.0,0.09,0.0,0.0,0.0,0.0,0.0,0.0,0.09
1336386846908010960,10,1336386846908010960,/odom,/base_link,-0.0256727004644,0.000626472040088,0.000705995404229,0.000396434582796,-0.00323965491726,-0.0161752372156,0.999863845319,0.1,0.0,0.0,0.0,0.0,0.0,0.0,0.1,0.0,0.0,0.0,0.0,0.0,0.0,0.1,0.0,0.0,0.0,0.0,0.0,0.0,0.17,0.0,0.0,0.0,0.0,0.0,0.0,0.17,0.0,0.0,0.0,0.0,0.0,0.0,0.17,0.0154601194989,0.0098895775103,0.00904208189073,-0.00350731684982,0.000506985560643,-0.0115080218667,0.05,0.0,0.0,0.0,0.0,0.0,0.0,0.05,0.0,0.0,0.0,0.0,0.0,0.0,0.05,0.0,0.0,0.0,0.0,0.0,0.0,0.09,0.0,0.0,0.0,0.0,0.0,0.0,0.09,0.0,0.0,0.0,0.0,0.0,0.0,0.09
1336386847007247925,11,1336386847007247925,/odom,/base_link,-0.0273678284663,0.0036326088322,-0.000519982031153,0.000937975923083,-0.00247643297569,-0.0166682153943,0.999857568895,0.1,0.0,0.0,0.0,0.0,0.0,0.0,0.1,0.0,0.0,0.0,0.0,0.0,0.0,0.1,0.0,0.0,0.0,0.0,0.0,0.0,0.17,0.0,0.0,0.0,0.0,0.0,0.0,0.17,0.0,0.0,0.0,0.0,0.0,0.0,0.17,-0.0181321195616,0.0297130815777,-0.0122637356389,0.0106316798046,0.0155519057203,-0.0099775249488,0.05,0.0,0.0,0.0,0.0,0.0,0.0,0.05,0.0,0.0,0.0,0.0,0.0,0.0,0.05,0.0,0.0,0.0,0.0,0.0,0.0,0.09,0.0,0.0,0.0,0.0,0.0,0.0,0.09,0.0,0.0,0.0,0.0,0.0,0.0,0.09
1336386847106483936,12,1336386847106483936,/odom,/base_link,-0.0282388187495,0.00322835244269,-0.000888868832871,0.000726888942339,-0.0018360992674,-0.0173209713734,0.999848030614,0.1,0.0,0.0,0.0,0.0,0.0,0.0,0.1,0.0,0.0,0.0,0.0,0.0,0.0,0.1,0.0,0.0,0.0,0.0,0.0,0.0,0.17,0.0,0.0,0.0,0.0,0.0,0.0,0.17,0.0,0.0,0.0,0.0,0.0,0.0,0.17,-0.00865446370041,-0.00437120496364,-0.00366617140269,-0.00450114279799,0.0128197064404,-0.0131585289771,0.05,0.0,0.0,0.0,0.0,0.0,0.0,0.05,0.0,0.0,0.0,0.0,0.0,0.0,0.05,0.0,0.0,0.0,0.0,0.0,0.0,0.09,0.0,0.0,0.0,0.0,0.0,0.0,0.09,0.0,0.0,0.0,0.0,0.0,0.0,0.09
1336386847205720901,13,1336386847205720901,/odom,/base_link,-0.0297393307742,0.00291094282188,-0.00155117607532,0.000556775422738,-0.000999911254066,-0.0180469549461,0.999836485429,0.1,0.0,0.0,0.0,0.0,0.0,0.0,0.1,0.0,0.0,0.0,0.0,0.0,0.0,0.1,0.0,0.0,0.0,0.0,0.0,0.0,0.17,0.0,0.0,0.0,0.0,0.0,0.0,0.17,0.0,0.0,0.0,0.0,0.0,0.0,0.17,-0.015024862626,-0.00373038821138,-0.00661360177951,-0.00374650476124,0.0167793457533,-0.0146390781234,0.05,0.0,0.0,0.0,0.0,0.0,0.0,0.05,0.0,0.0,0.0,0.0,0.0,0.0,0.05,0.0,0.0,0.0,0.0,0.0,0.0,0.09,0.0,0.0,0.0,0.0,0.0,0.0,0.09,0.0,0.0,0.0,0.0,0.0,0.0,0.09
1336386847304958820,14,1336386847304958820,/odom,/base_link,-0.0283307639831,0.00146878076886,-0.000367079645372,0.000222766460432,-0.00093302832473,-0.0186784677014,0.999825082041,0.1,0.0,0.0,0.0,0.0,0.0,0.0,0.1,0.0,0.0,0.0,0.0,0.0,0.0,0.1,0.0,0.0,0.0,0.0,0.0,0.0,0.17,0.0,0.0,0.0,0.0,0.0,0.0,0.17,0.0,0.0,0.0,0.0,0.0,0.0,0.17,0.0147326408178,-0.0139969670645,0.0119188533948,-0.00676730265948,0.00121891190282,-0.0127233341884,0.05,0.0,0.0,0.0,0.0,0.0,0.0,0.05,0.0,0.0,0.0,0.0,0.0,0.0,0.05,0.0,0.0,0.0,0.0,0.0,0.0,0.09,0.0,0.0,0.0,0.0,0.0,0.0,0.09,0.0,0.0,0.0,0.0,0.0,0.0,0.09
1336386847404196024,15,1336386847404196024,/odom,/base_link,-0.0296969075682,0.00418383767935,-0.0019226114202,0.00096305277753,-9.77945839274e-05,-0.0194003826903,0.99981132626,0.1,0.0,0.0,0.0,0.0,0.0,0.0,0.1,0.0,0.0,0.0,0.0,0.0,0.0,0.1,0.0,0.0,0.0,0.0,0.0,0.0,0.17,0.0,0.0,0.0,0.0,0.0,0.0,0.17,0.0,0.0,0.0,0.0,0.0,0.0,0.17,-0.0148078214981,0.0268184659305,-0.0156602909729,0.0145889973212,0.0171053117229,-0.0145695889011,0.05,0.0,0.0,0.0,0.0,0.0,0.0,0.05,0.0,0.0,0.0,0.0,0.0,0.0,0.05,0.0,0.0,0.0,0.0,0.0,0.0,0.09,0.0,0.0,0.0,0.0,0.0,0.0,0.09,0.0,0.0,0.0,0.0,0.0,0.0,0.09
1336386847503432035,16,1336386847503432035,/odom,/base_link,-0.0287170043256,0.00542874649196,-0.00147366808781,0.00138174724836,-1.81041522834e-05,-0.0199658632558,0.999799707317,0.1,0.0,0.0,0.0,0.0,0.0,0.0,0.1,0.0,0.0,0.0,0.0,0.0,0.0,0.1,0.0,0.0,0.0,0.0,0.0,0.0,0.17,0.0,0.0,0.0,0.0,0.0,0.0,0.17,0.0,0.0,0.0,0.0,0.0,0.0,0.17,0.00938109133037,0.0129272557008,0.00449757702331,0.00840471858282,0.0017584848812,-0.0114014463063,0.05,0.0,0.0,0.0,0.0,0.0,0.0,0.05,0.0,0.0,0.0,0.0,0.0,0.0,0.05,0.0,0.0,0.0,0.0,0.0,0.0,0.09,0.0,0.0,0.0,0.0,0.0,0.0,0.09,0.0,0.0,0.0,0.0,0.0,0.0,0.09
1336386847602669954,17,1336386847602669954,/odom,/base_link,-0.0325627704397,0.00570550134122,-0.0032029917445,0.00163897114958,0.00126232327736,-0.020620093845,0.999785242961,0.1,0.0,0.0,0.0,0.0,0.0,0.0,0.1,0.0,0.0,0.0,0.0,0.0,0.0,0.1,0.0,0.0,0.0,0.0,0.0,0.0,0.17,0.0,0.0,0.0,0.0,0.0,0.0,0.17,0.0,0.0,0.0,0.0,0.0,0.0,0.17,-0.0388331024816,0.00119124570356,-0.0174301326937,0.00466788841766,0.0258853247463,-0.0132240270419,0.05,0.0,0.0,0.0,0.0,0.0,0.0,0.05,0.0,0.0,0.0,0.0,0.0,0.0,0.05,0.0,0.0,0.0,0.0,0.0,0.0,0.09,0.0,0.0,0.0,0.0,0.0,0.0,0.09,0.0,0.0,0.0,0.0,0.0,0.0,0.09
1336386847701905966,18,1336386847701905966,/odom,/base_link,-0.035233511161,0.00318878939323,-0.00385521915064,0.0013442363213,0.00210710293546,-0.0214193583319,0.999767455079,0.1,0.0,0.0,0.0,0.0,0.0,0.0,0.1,0.0,0.0,0.0,0.0,0.0,0.0,0.1,0.0,0.0,0.0,0.0,0.0,0.0,0.17,0.0,0.0,0.0,0.0,0.0,0.0,0.17,0.0,0.0,0.0,0.0,0.0,0.0,0.17,-0.0258274559613,-0.0264701393978,-0.00655410912211,-0.00626895321762,0.0168735813248,-0.0161476952419,0.05,0.0,0.0,0.0,0.0,0.0,0.0,0.05,0.0,0.0,0.0,0.0,0.0,0.0,0.05,0.0,0.0,0.0,0.0,0.0,0.0,0.09,0.0,0.0,0.0,0.0,0.0,0.0,0.09,0.0,0.0,0.0,0.0,0.0,0.0,0.09
1336386847801142931,19,1336386847801142931,/odom,/base_link,-0.0346832526169,0.00147221704343,-0.00420080500426,0.00126469008225,0.00210983182934,-0.0221227616764,0.999752235599,0.1,0.0,0.0,0.0,0.0,0.0,0.0,0.1,0.0,0.0,0.0,0.0,0.0,0.0,0.1,0.0,0.0,0.0,0.0,0.0,0.0,0.17,0.0,0.0,0.0,0.0,0.0,0.0,0.17,0.0,0.0,0.0,0.0,0.0,0.0,0.17,0.00629537205998,-0.0170533101214,-0.00341128960608,-0.00157367966325,2.23623505242e-06,-0.0141829630173,0.05,0.0,0.0,0.0,0.0,0.0,0.0,0.05,0.0,0.0,0.0,0.0,0.0,0.0,0.05,0.0,0.0,0.0,0.0,0.0,0.0,0.09,0.0,0.0,0.0,0.0,0.0,0.0,0.09,0.0,0.0,0.0,0.0,0.0,0.0,0.09
1336386847900379896,20,1336386847900379896,/odom,/base_link,-0.0353857566039,0.00270771352815,-0.00552993614273,0.00191305107969,0.00227744785342,-0.0229406354973,0.999732404551,0.1,0.0,0.0,0.0,0.0,0.0,0.0,0.1,0.0,0.0,0.0,0.0,0.0,0.0,0.1,0.0,0.0,0.0,0.0,0.0,0.0,0.17,0.0,0.0,0.0,0.0,0.0,0.0,0.17,0.0,0.0,0.0,0.0,0.0,0.0,0.17,-0.00756546392662,0.0120919408756,-0.0134554592667,0.0130242395873,0.00364633375441,-0.0164647135333,0.05,0.0,0.0,0.0,0.0,0.0,0.0,0.05,0.0,0.0,0.0,0.0,0.0,0.0,0.05,0.0,0.0,0.0,0.0,0.0,0.0,0.09,0.0,0.0,0.0,0.0,0.0,0.0,0.09,0.0,0.0,0.0,0.0,0.0,0.0,0.09
1336386847999616861,21,1336386847999616861,/odom,/base_link,-0.0375996068604,0.00177284284288,-0.00627466520795,0.00208646749198,0.00268765046096,-0.023650742181,0.999714492034,0.1,0.0,0.0,0.0,0.0,0.0,0.0,0.1,0.0,0.0,0.0,0.0,0.0,0.0,0.1,0.0,0.0,0.0,0.0,0.0,0.0,0.17,0.0,0.0,0.0,0.0,0.0,0.0,0.17,0.0,0.0,0.0,0.0,0.0,0.0,0.17,-0.0218181507173,-0.0104619992239,-0.00756702999011,0.00333769208403,0.00831854329141,-0.0143236436521,0.05,0.0,0.0,0.0,0.0,0.0,0.0,0.05,0.0,0.0,0.0,0.0,0.0,0.0,0.05,0.0,0.0,0.0,0.0,0.0,0.0,0.09,0.0,0.0,0.0,0.0,0.0,0.0,0.09,0.0,0.0,0.0,0.0,0.0,0.0,0.09
1336386848098853827,22,1336386848098853827,/odom,/base_link,-0.0370631642957,0.00329505230214,-0.00740124973844,0.00288323592499,0.00245639608027,-0.0243799758319,0.999695588591,0.1,0.0,0.0,0.0,0.0,0.0,0.0,0.1,0.0,0.0,0.0,0.0,0.0,0.0,0.1,0.0,0.0,0.0,0.0,0.0,0.0,0.17,0.0,0.0,0.0,0.0,0.0,0.0,0.17,0.0,0.0,0.0,0.0,0.0,0.0,0.17,0.00473648840572,0.0155316113663,-0.0113896313393,0.0162038371291,-0.00430917952252,-0.0146487496892,0.05,0.0,0.0,0.0,0.0,0.0,0.0,0.05,0.0,0.0,0.0,0.0,0.0,0.0,0.05,0.0,0.0,0.0,0.0,0.0,0.0,0.09,0.0,0.0,0.0,0.0,0.0,0.0,0.09,0.0,0.0,0.0,0.0,0.0,0.0,0.09
1336386848198091030,23,1336386848198091030,/odom,/base_link,-0.038158659594,0.00343198796158,-0.00805285179738,0.00335058604277,0.00249275547228,-0.024438135551,0.999692621396,0.1,0.0,0.0,0.0,0.0,0.0,0.0,0.1,0.0,0.0,0.0,0.0,0.0,0.0,0.1,0.0,0.0,0.0,0.0,0.0,0.0,0.17,0.0,0.0,0.0,0.0,0.0,0.0,0.17,0.0,0.0,0.0,0.0,0.0,0.0,0.17,-0.0110599749224,0.000802892311074,-0.00662670278114,0.00940116874792,0.000958953076269,-0.00115221289503,0.05,0.0,0.0,0.0,0.0,0.0,0.0,0.05,0.0,0.0,0.0,0.0,0.0,0.0,0.05,0.0,0.0,0.0,0.0,0.0,0.0,0.09,0.0,0.0,0.0,0.0,0.0,0.0,0.09,0.0,0.0,0.0,0.0,0.0,0.0,0.09
1336386848297327995,24,1336386848297327995,/odom,/base_link,-0.0383408494775,0.00222647687482,-0.0090465241846,0.00357283622368,0.00215773947333,-0.0249286695561,0.999680519184,0.1,0.0,0.0,0.0,0.0,0.0,0.0,0.1,0.0,0.0,0.0,0.0,0.0,0.0,0.1,0.0,0.0,0.0,0.0,0.0,0.0,0.17,0.0,0.0,0.0,0.0,0.0,0.0,0.17,0.0,0.0,0.0,0.0,0.0,0.0,0.17,-0.00118879286054,-0.0122886147173,-0.00993876820208,0.00466826809396,-0.00667281739039,-0.0098552489706,0.05,0.0,0.0,0.0,0.0,0.0,0.0,0.05,0.0,0.0,0.0,0.0,0.0,0.0,0.05,0.0,0.0,0.0,0.0,0.0,0.0,0.09,0.0,0.0,0.0,0.0,0.0,0.0,0.09,0.0,0.0,0.0,0.0,0.0,0.0,0.09
1336386848396564960,25,1336386848396564960,/odom,/base_link,-0.0375022647794,0.00498798906477,-0.0102071357736,0.00474327951101,0.00155707176932,-0.0252761431139,0.99966804161,0.1,0.0,0.0,0.0,0.0,0.0,0.0,0.1,0.0,0.0,0.0,0.0,0.0,0.0,0.1,0.0,0.0,0.0,0.0,0.0,0.0,0.17,0.0,0.0,0.0,0.0,0.0,0.0,0.17,0.0,0.0,0.0,0.0,0.0,0.0,0.17,0.00710575221596,0.0281311787221,-0.011861773784,0.0238991166961,-0.0115382998198,-0.00691278905519,0.05,0.0,0.0,0.0,0.0,0.0,0.0,0.05,0.0,0.0,0.0,0.0,0.0,0.0,0.05,0.0,0.0,0.0,0.0,0.0,0.0,0.09,0.0,0.0,0.0,0.0,0.0,0.0,0.09,0.0,0.0,0.0,0.0,0.0,0.0,0.09
1336386848495801926,26,1336386848495801926,/odom,/base_link,-0.0386451028451,-0.001339742797,-0.00992044746835,0.00371499276208,0.00137945529354,-0.0255194813749,0.99966647038,0.1,0.0,0.0,0.0,0.0,0.0,0.0,0.1,0.0,0.0,0.0,0.0,0.0,0.0,0.1,0.0,0.0,0.0,0.0,0.0,0.0,0.17,0.0,0.0,0.0,0.0,0.0,0.0,0.17,0.0,0.0,0.0,0.0,0.0,0.0,0.17,-0.0082897720038,-0.0642344943104,0.00346541047435,-0.0206187236497,-0.00412548790678,-0.00491864847777,0.05,0.0,0.0,0.0,0.0,0.0,0.0,0.05,0.0,0.0,0.0,0.0,0.0,0.0,0.05,0.0,0.0,0.0,0.0,0.0,0.0,0.09,0.0,0.0,0.0,0.0,0.0,0.0,0.09,0.0,0.0,0.0,0.0,0.0,0.0,0.09
1336386848595038891,27,1336386848595038891,/odom,/base_link,-0.0409272929196,0.00153252674337,-0.01201257178,0.0049396897928,0.0014773033417,-0.0254162852795,0.999663658178,0.1,0.0,0.0,0.0,0.0,0.0,0.0,0.1,0.0,0.0,0.0,0.0,0.0,0.0,0.1,0.0,0.0,0.0,0.0,0.0,0.0,0.17,0.0,0.0,0.0,0.0,0.0,0.0,0.17,0.0,0.0,0.0,0.0,0.0,0.0,0.17,-0.0243816549963,0.0275763374729,-0.0213575270449,0.0246210659293,0.00260903446324,0.0021043740512,0.05,0.0,0.0,0.0,0.0,0.0,0.0,0.05,0.0,0.0,0.0,0.0,0.0,0.0,0.05,0.0,0.0,0.0,0.0,0.0,0.0,0.09,0.0,0.0,0.0,0.0,0.0,0.0,0.09,0.0,0.0,0.0,0.0,0.0,0.0,0.09
1336386848694274902,28,1336386848694274902,/odom,/base_link,-0.0444196485912,-0.00154968572996,-0.0135559480267,0.00479919053762,0.0018010545487,-0.0254912884038,0.999661901939,0.1,0.0,0.0,0.0,0.0,0.0,0.0,0.1,0.0,0.0,0.0,0.0,0.0,0.0,0.1,0.0,0.0,0.0,0.0,0.0,0.0,0.17,0.0,0.0,0.0,0.0,0.0,0.0,0.17,0.0,0.0,0.0,0.0,0.0,0.0,0.17,-0.0335191145107,-0.0329590350506,-0.01533778674,-0.00299409612519,0.00644329518688,-0.00154841626742,0.05,0.0,0.0,0.0,0.0,0.0,0.0,0.05,0.0,0.0,0.0,0.0,0.0,0.0,0.05,0.0,0.0,0.0,0.0,0.0,0.0,0.09,0.0,0.0,0.0,0.0,0.0,0.0,0.09,0.0,0.0,0.0,0.0,0.0,0.0,0.09
1336386848793512821,29,1336386848793512821,/odom,/base_link,-0.0399310683213,0.00188176825531,-0.0139463967985,0.00601423153722,0.000216829675466,-0.0250567323519,0.999667915944,0.1,0.0,0.0,0.0,0.0,0.0,0.0,0.1,0.0,0.0,0.0,0.0,0.0,0.0,0.1,0.0,0.0,0.0,0.0,0.0,0.0,0.17,0.0,0.0,0.0,0.0,0.0,0.0,0.17,0.0,0.0,0.0,0.0,0.0,0.0,0.17,0.0434248660316,0.0368001007362,-0.00411741764765,0.0252766985357,-0.0312510116738,0.00895532876618,0.05,0.0,0.0,0.0,0.0,0.0,0.0,0.05,0.0,0.0,0.0,0.0,0.0,0.0,0.05,0.0,0.0,0.0,0.0,0.0,0.0,0.09,0.0,0.0,0.0,0.0,0.0,0.0,0.09,0.0,0.0,0.0,0.0,0.0,0.0,0.09
1336386848892748833,30,1336386848892748833,/odom,/base_link,-0.0429767488925,-0.00238537442661,-0.0149114748192,0.00536948439766,0.000414893255746,-0.0250610816821,0.999671415359,0.1,0.0,0.0,0.0,0.0,0.0,0.0,0.1,0.0,0.0,0.0,0.0,0.0,0.0,0.1,0.0,0.0,0.0,0.0,0.0,0.0,0.17,0.0,0.0,0.0,0.0,0.0,0.0,0.17,0.0,0.0,0.0,0.0,0.0,0.0,0.17,-0.0284915467899,-0.0445972854223,-0.00921091048462,-0.0130903286985,0.0036643078148,-0.000112684958503,0.05,0.0,0.0,0.0,0.0,0.0,0.0,0.05,0.0,0.0,0.0,0.0,0.0,0.0,0.05,0.0,0.0,0.0,0.0,0.0,0.0,0.09,0.0,0.0,0.0,0.0,0.0,0.0,0.09,0.0,0.0,0.0,0.0,0.0,0.0,0.09
1336386848991986990,31,1336386848991986990,/odom,/base_link,-0.0435840798341,-0.000312513281737,-0.0167863712451,0.00621152137347,9.31297511682e-05,-0.0246361303111,0.999677182601,0.1,0.0,0.0,0.0,0.0,0.0,0.0,0.1,0.0,0.0,0.0,0.0,0.0,0.0,0.1,0.0,0.0,0.0,0.0,0.0,0.0,0.17,0.0,0.0,0.0,0.0,0.0,0.0,0.17,0.0,0.0,0.0,0.0,0.0,0.0,0.17,-0.00713798948707,0.0203511999045,-0.0191199055594,0.0171227867709,-0.00601131867062,0.00860623403382,0.05,0.0,0.0,0.0,0.0,0.0,0.0,0.05,0.0,0.0,0.0,0.0,0.0,0.0,0.05,0.0,0.0,0.0,0.0,0.0,0.0,0.09,0.0,0.0,0.0,0.0,0.0,0.0,0.09,0.0,0.0,0.0,0.0,0.0,0.0,0.09
1336386849091223001,32,1336386849091223001,/odom,/base_link,-0.0428575378775,-0.00400503298429,-0.0163992333383,0.00563242319912,-0.000638883674594,-0.0244604727269,0.999684726757,0.1,0.0,0.0,0.0,0.0,0.0,0.0,0.1,0.0,0.0,0.0,0.0,0.0,0.0,0.1,0.0,0.0,0.0,0.0,0.0,0.0,0.17,0.0,0.0,0.0,0.0,0.0,0.0,0.17,0.0,0.0,0.0,0.0,0.0,0.0,0.17,0.00914330613597,-0.0367523715475,0.00436228146275,-0.0113051814875,-0.0150137750086,0.00363335343172,0.05,0.0,0.0,0.0,0.0,0.0,0.0,0.05,0.0,0.0,0.0,0.0,0.0,0.0,0.05,0.0,0.0,0.0,0.0,0.0,0.0,0.09,0.0,0.0,0.0,0.0,0.0,0.0,0.09,0.0,0.0,0.0,0.0,0.0,0.0,0.09
1336386849190460920,33,1336386849190460920,/odom,/base_link,-0.0437402985373,-0.00588547624065,-0.0171585793653,0.00535892883074,-0.000885223740349,-0.0243783273371,0.999688049052,0.1,0.0,0.0,0.0,0.0,0.0,0.0,0.1,0.0,0.0,0.0,0.0,0.0,0.0,0.1,0.0,0.0,0.0,0.0,0.0,0.0,0.17,0.0,0.0,0.0,0.0,0.0,0.0,0.17,0.0,0.0,0.0,0.0,0.0,0.0,0.17,-0.00796557148853,-0.0194463390746,-0.00742467129496,-0.00538803692708,-0.0050885268711,0.00168812449788,0.05,0.0,0.0,0.0,0.0,0.0,0.0,0.05,0.0,0.0,0.0,0.0,0.0,0.0,0.05,0.0,0.0,0.0,0.0,0.0,0.0,0.09,0.0,0.0,0.0,0.0,0.0,0.0,0.09,0.0,0.0,0.0,0.0,0.0,0.0,0.09
1336386849289696932,34,1336386849289696932,/odom,/base_link,-0.0443553437257,-0.00814974463466,-0.0166275967349,0.00489592894409,-0.00115521760363,-0.0237482835158,0.999705313771,0.1,0.0,0.0,0.0,0.0,0.0,0.0,0.1,0.0,0.0,0.0,0.0,0.0,0.0,0.1,0.0,0.0,0.0,0.0,0.0,0.0,0.17,0.0,0.0,0.0,0.0,0.0,0.0,0.17,0.0,0.0,0.0,0.0,0.0,0.0,0.17,-0.00507000357427,-0.0230330420581,0.00560646649096,-0.00918634854601,-0.00559887855601,0.0127398302139,0.05,0.0,0.0,0.0,0.0,0.0,0.0,0.05,0.0,0.0,0.0,0.0,0.0,0.0,0.05,0.0,0.0,0.0,0.0,0.0,0.0,0.09,0.0,0.0,0.0,0.0,0.0,0.0,0.09,0.0,0.0,0.0,0.0,0.0,0.0,0.09
1336386849388933897,35,1336386849388933897,/odom,/base_link,-0.0423723305092,-0.00705223699649,-0.0171201880178,0.00517399561133,-0.0019886642203,-0.0233687793927,0.999711545964,0.1,0.0,0.0,0.0,0.0,0.0,0.0,0.1,0.0,0.0,0.0,0.0,0.0,0.0,0.1,0.0,0.0,0.0,0.0,0.0,0.0,0.17,0.0,0.0,0.0,0.0,0.0,0.0,0.17,0.0,0.0,0.0,0.0,0.0,0.0,0.17,0.0194244457601,0.0119461958517,-0.00512199268711,0.00600956698661,-0.0166214737927,0.00772493634333,0.05,0.0,0.0,0.0,0.0,0.0,0.0,0.05,0.0,0.0,0.0,0.0,0.0,0.0,0.05,0.0,0.0,0.0,0.0,0.0,0.0,0.09,0.0,0.0,0.0,0.0,0.0,0.0,0.09,0.0,0.0,0.0,0.0,0.0,0.0,0.09
1336386849488170862,36,1336386849488170862,/odom,/base_link,-0.0448869453244,-0.00342643722698,-0.0195479075148,0.00599359624156,-0.00159109839496,-0.0231567292132,0.999712614256,0.1,0.0,0.0,0.0,0.0,0.0,0.0,0.1,0.0,0.0,0.0,0.0,0.0,0.0,0.1,0.0,0.0,0.0,0.0,0.0,0.0,0.17,0.0,0.0,0.0,0.0,0.0,0.0,0.17,0.0,0.0,0.0,0.0,0.0,0.0,0.17,-0.0271108775651,0.0350561287044,-0.0247300548328,0.016334434905,0.00841830550252,0.00419857849382,0.05,0.0,0.0,0.0,0.0,0.0,0.0,0.05,0.0,0.0,0.0,0.0,0.0,0.0,0.05,0.0,0.0,0.0,0.0,0.0,0.0,0.09,0.0,0.0,0.0,0.0,0.0,0.0,0.09,0.0,0.0,0.0,0.0,0.0,0.0,0.09
1336386849587407827,37,1336386849587407827,/odom,/base_link,-0.0399154776658,-0.00230761039538,-0.018878462516,0.00619846214604,-0.00307277172973,-0.0230353329365,0.999710713445,0.1,0.0,0.0,0.0,0.0,0.0,0.0,0.1,0.0,0.0,0.0,0.0,0.0,0.0,0.1,0.0,0.0,0.0,0.0,0.0,0.0,0.17,0.0,0.0,0.0,0.0,0.0,0.0,0.17,0.0,0.0,0.0,0.0,0.0,0.0,0.17,0.0495403242586,0.0136612723294,0.00643784880623,0.00482325055143,-0.0297425354907,0.00261741199481,0.05,0.0,0.0,0.0,0.0,0.0,0.0,0.05,0.0,0.0,0.0,0.0,0.0,0.0,0.05,0.0,0.0,0.0,0.0,0.0,0.0,0.09,0.0,0.0,0.0,0.0,0.0,0.0,0.09,0.0,0.0,0.0,0.0,0.0,0.0,0.09
1336386849686645031,38,1336386849686645031,/odom,/base_link,-0.04623980676,-0.0032670913157,-0.0202170592827,0.00577991989647,-0.00169005779492,-0.0234427021704,0.999707045061,0.1,0.0,0.0,0.0,0.0,0.0,0.0,0.1,0.0,0.0,0.0,0.0,0.0,0.0,0.1,0.0,0.0,0.0,0.0,0.0,0.0,0.17,0.0,0.0,0.0,0.0,0.0,0.0,0.17,0.0,0.0,0.0,0.0,0.0,0.0,0.17,-0.0632939238307,-0.0127594180526,-0.0129593742741,-0.00909944279864,0.0276133707642,-0.00835615362121,0.05,0.0,0.0,0.0,0.0,0.0,0.0,0.05,0.0,0.0,0.0,0.0,0.0,0.0,0.05,0.0,0.0,0.0,0.0,0.0,0.0,0.09,0.0,0.0,0.0,0.0,0.0,0.0,0.09,0.0,0.0,0.0,0.0,0.0,0.0,0.09
1336386849785881996,39,1336386849785881996,/odom,/base_link,-0.0461646322291,-0.00700996768664,-0.019389062312,0.00462166457589,-0.00185734826979,-0.0237518568213,0.999705476514,0.1,0.0,0.0,0.0,0.0,0.0,0.0,0.1,0.0,0.0,0.0,0.0,0.0,0.0,0.1,0.0,0.0,0.0,0.0,0.0,0.0,0.17,0.0,0.0,0.0,0.0,0.0,0.0,0.17,0.0,0.0,0.0,0.0,0.0,0.0,0.17,0.00255119637524,-0.0375400034995,0.00877314533002,-0.0232677000604,-0.00395384298144,-0.0061706136278,0.05,0.0,0.0,0.0,0.0,0.0,0.0,0.05,0.0,0.0,0.0,0.0,0.0,0.0,0.05,0.0,0.0,0.0,0.0,0.0,0.0,0.09,0.0,0.0,0.0,0.0,0.0,0.0,0.09,0.0,0.0,0.0,0.0,0.0,0.0,0.09
1336386849885118961,40,1336386849885118961,/odom,/base_link,-0.0464804581168,-0.0061742143187,-0.0194183285863,0.00455938072413,-0.00186265786404,-0.024611968516,0.99968494715,0.1,0.0,0.0,0.0,0.0,0.0,0.0,0.1,0.0,0.0,0.0,0.0,0.0,0.0,0.1,0.0,0.0,0.0,0.0,0.0,0.0,0.17,0.0,0.0,0.0,0.0,0.0,0.0,0.17,0.0,0.0,0.0,0.0,0.0,0.0,0.17,-0.00358005370181,0.00825809819155,-0.000359460417197,-0.00128262789997,-0.000217674267686,-0.0173364001374,0.05,0.0,0.0,0.0,0.0,0.0,0.0,0.05,0.0,0.0,0.0,0.0,0.0,0.0,0.05,0.0,0.0,0.0,0.0,0.0,0.0,0.09,0.0,0.0,0.0,0.0,0.0,0.0,0.09,0.0,0.0,0.0,0.0,0.0,0.0,0.09
1336386849984355927,41,1336386849984355927,/odom,/base_link,-0.0460260093761,-0.00617111269705,-0.018628371882,0.00420381580124,-0.00200130845848,-0.0255733647465,0.99966210577,0.1,0.0,0.0,0.0,0.0,0.0,0.0,0.1,0.0,0.0,0.0,0.0,0.0,0.0,0.1,0.0,0.0,0.0,0.0,0.0,0.0,0.17,0.0,0.0,0.0,0.0,0.0,0.0,0.17,0.0,0.0,0.0,0.0,0.0,0.0,0.17,0.00460017051913,0.000329779440013,0.00794155643594,-0.00712893842156,-0.00305902155583,-0.0193549090555,0.05,0.0,0.0,0.0,0.0,0.0,0.0,0.05,0.0,0.0,0.0,0.0,0.0,0.0,0.05,0.0,0.0,0.0,0.0,0.0,0.0,0.09,0.0,0.0,0.0,0.0,0.0,0.0,0.09,0.0,0.0,0.0,0.0,0.0,0.0,0.09
1336386850083592892,42,1336386850083592892,/odom,/base_link,-0.0451416311407,-0.00261379465033,-0.0193103918599,0.00481894731819,-0.00216309791475,-0.026510903738,0.999634568599,0.1,0.0,0.0,0.0,0.0,0.0,0.0,0.1,0.0,0.0,0.0,0.0,0.0,0.0,0.1,0.0,0.0,0.0,0.0,0.0,0.0,0.17,0.0,0.0,0.0,0.0,0.0,0.0,0.17,0.0,0.0,0.0,0.0,0.0,0.0,0.17,0.00704060757563,0.0361955870824,-0.00720753176027,0.0124409438952,-0.00302307088101,-0.0189138705788,0.05,0.0,0.0,0.0,0.0,0.0,0.0,0.05,0.0,0.0,0.0,0.0,0.0,0.0,0.05,0.0,0.0,0.0,0.0,0.0,0.0,0.09,0.0,0.0,0.0,0.0,0.0,0.0,0.09,0.0,0.0,0.0,0.0,0.0,0.0,0.09
1336386850182829857,43,1336386850182829857,/odom,/base_link,-0.0491817544659,-0.00735753149087,-0.0193336035192,0.00329473049871,-0.00111049669038,-0.0273861641964,0.999618882154,0.1,0.0,0.0,0.0,0.0,0.0,0.0,0.1,0.0,0.0,0.0,0.0,0.0,0.0,0.1,0.0,0.0,0.0,0.0,0.0,0.0,0.17,0.0,0.0,0.0,0.0,0.0,0.0,0.17,0.0,0.0,0.0,0.0,0.0,0.0,0.17,-0.0381205981165,-0.0498919619591,0.000407638075397,-0.0313065600339,0.0203060854385,-0.0176775354997,0.05,0.0,0.0,0.0,0.0,0.0,0.0,0.05,0.0,0.0,0.0,0.0,0.0,0.0,0.05,0.0,0.0,0.0,0.0,0.0,0.0,0.09,0.0,0.0,0.0,0.0,0.0,0.0,0.09,0.0,0.0,0.0,0.0,0.0,0.0,0.09
1336386850282066822,44,1336386850282066822,/odom,/base_link,-0.0471835011526,-0.00411673610227,-0.0195690098126,0.00380237837662,-0.00141318868035,-0.0282123710019,0.999593720938,0.1,0.0,0.0,0.0,0.0,0.0,0.0,0.1,0.0,0.0,0.0,0.0,0.0,0.0,0.1,0.0,0.0,0.0,0.0,0.0,0.0,0.17,0.0,0.0,0.0,0.0,0.0,0.0,0.17,0.0,0.0,0.0,0.0,0.0,0.0,0.17,0.0183128219243,0.0336940125771,-0.00263356964988,0.0103773722806,-0.00587329975029,-0.0166499970531,0.05,0.0,0.0,0.0,0.0,0.0,0.0,0.05,0.0,0.0,0.0,0.0,0.0,0.0,0.05,0.0,0.0,0.0,0.0,0.0,0.0,0.09,0.0,0.0,0.0,0.0,0.0,0.0,0.09,0.0,0.0,0.0,0.0,0.0,0.0,0.09
1336386850381304979,45,1336386850381304979,/odom,/base_link,-0.0484634432334,-4.95680431474e-05,-0.0194238704493,0.00458740909428,-0.000925385408044,-0.0292209307508,0.999562022361,0.1,0.0,0.0,0.0,0.0,0.0,0.0,0.1,0.0,0.0,0.0,0.0,0.0,0.0,0.1,0.0,0.0,0.0,0.0,0.0,0.0,0.17,0.0,0.0,0.0,0.0,0.0,0.0,0.17,0.0,0.0,0.0,0.0,0.0,0.0,0.17,-0.0151852873357,0.0402014075675,0.00119341574494,0.0155110735112,0.0101951329453,-0.0203955583174,0.05,0.0,0.0,0.0,0.0,0.0,0.0,0.05,0.0,0.0,0.0,0.0,0.0,0.0,0.05,0.0,0.0,0.0,0.0,0.0,0.0,0.09,0.0,0.0,0.0,0.0,0.0,0.0,0.09,0.0,0.0,0.0,0.0,0.0,0.0,0.09
1336386850480540991,46,1336386850480540991,/odom,/base_link,-0.0488379625875,-0.000593211877556,-0.017423719469,0.0045822125411,-0.000761334930646,-0.0301263346649,0.999535305858,0.1,0.0,0.0,0.0,0.0,0.0,0.0,0.1,0.0,0.0,0.0,0.0,0.0,0.0,0.1,0.0,0.0,0.0,0.0,0.0,0.0,0.17,0.0,0.0,0.0,0.0,0.0,0.0,0.17,0.0,0.0,0.0,0.0,0.0,0.0,0.17,-0.00341562408241,-0.00550320629525,0.0202125501797,-0.000215713513421,0.0032175541309,-0.0182703015998,0.05,0.0,0.0,0.0,0.0,0.0,0.0,0.05,0.0,0.0,0.0,0.0,0.0,0.0,0.05,0.0,0.0,0.0,0.0,0.0,0.0,0.09,0.0,0.0,0.0,0.0,0.0,0.0,0.09,0.0,0.0,0.0,0.0,0.0,0.0,0.09
1336386850579777002,47,1336386850579777002,/odom,/base_link,-0.0517832194844,-0.00220928184394,-0.0143948294618,0.00415645832905,5.83514977699e-05,-0.0310248256264,0.999509970257,0.1,0.0,0.0,0.0,0.0,0.0,0.0,0.1,0.0,0.0,0.0,0.0,0.0,0.0,0.1,0.0,0.0,0.0,0.0,0.0,0.0,0.17,0.0,0.0,0.0,0.0,0.0,0.0,0.17,0.0,0.0,0.0,0.0,0.0,0.0,0.17,-0.0286065016321,-0.0177611040959,0.0307225606536,-0.00908578637802,0.0161703994279,-0.0181843019148,0.05,0.0,0.0,0.0,0.0,0.0,0.0,0.05,0.0,0.0,0.0,0.0,0.0,0.0,0.05,0.0,0.0,0.0,0.0,0.0,0.0,0.09,0.0,0.0,0.0,0.0,0.0,0.0,0.09,0.0,0.0,0.0,0.0,0.0,0.0,0.09
1336386850679015875,48,1336386850679015875,/odom,/base_link,-0.0538585873596,-0.00104580889074,-0.011539032018,0.00484841630793,0.000614446820872,-0.0316832421154,0.99948601165,0.1,0.0,0.0,0.0,0.0,0.0,0.0,0.1,0.0,0.0,0.0,0.0,0.0,0.0,0.1,0.0,0.0,0.0,0.0,0.0,0.0,0.17,0.0,0.0,0.0,0.0,0.0,0.0,0.17,0.0,0.0,0.0,0.0,0.0,0.0,0.17,-0.0216104772656,0.0106429791054,0.0286815086236,0.0135935497451,0.0115792433442,-0.0133235753668,0.05,0.0,0.0,0.0,0.0,0.0,0.0,0.05,0.0,0.0,0.0,0.0,0.0,0.0,0.05,0.0,0.0,0.0,0.0,0.0,0.0,0.09,0.0,0.0,0.0,0.0,0.0,0.0,0.09,0.0,0.0,0.0,0.0,0.0,0.0,0.09
1336386850778250933,49,1336386850778250933,/odom,/base_link,-0.0544036179146,-0.00638221148417,-0.00528599474784,0.00449139940218,0.000640260864198,-0.0323527725629,0.999466215289,0.1,0.0,0.0,0.0,0.0,0.0,0.0,0.1,0.0,0.0,0.0,0.0,0.0,0.0,0.1,0.0,0.0,0.0,0.0,0.0,0.0,0.17,0.0,0.0,0.0,0.0,0.0,0.0,0.17,0.0,0.0,0.0,0.0,0.0,0.0,0.17,-0.00217255790361,-0.0534045154414,0.0635275887551,-0.00719793882289,0.000226841701361,-0.0135064791139,0.05,0.0,0.0,0.0,0.0,0.0,0.0,0.05,0.0,0.0,0.0,0.0,0.0,0.0,0.05,0.0,0.0,0.0,0.0,0.0,0.0,0.09,0.0,0.0,0.0,0.0,0.0,0.0,0.09,0.0,0.0,0.0,0.0,0.0,0.0,0.09
1336386850877487898,50,1336386850877487898,/odom,/base_link,-0.0538762268194,-0.00480400476386,0.00049352942148,0.00596315965846,0.000285689047866,-0.0326883951968,0.99944776148,0.1,0.0,0.0,0.0,0.0,0.0,0.0,0.1,0.0,0.0,0.0,0.0,0.0,0.0,0.1,0.0,0.0,0.0,0.0,0.0,0.0,0.17,0.0,0.0,0.0,0.0,0.0,0.0,0.17,0.0,0.0,0.0,0.0,0.0,0.0,0.17,0.00418347123121,0.0167336669679,0.0580990503989,0.0298829049887,-0.00621265976996,-0.00672140295765,0.05,0.0,0.0,0.0,0.0,0.0,0.0,0.05,0.0,0.0,0.0,0.0,0.0,0.0,0.05,0.0,0.0,0.0,0.0,0.0,0.0,0.09,0.0,0.0,0.0,0.0,0.0,0.0,0.09,0.0,0.0,0.0,0.0,0.0,0.0,0.09
1336386850976724863,51,1336386850976724863,/odom,/base_link,-0.0539138404417,-0.0118655895308,0.00946625311247,0.00555606867425,-0.000218120825069,-0.0332487122322,0.999431641314,0.1,0.0,0.0,0.0,0.0,0.0,0.0,0.1,0.0,0.0,0.0,0.0,0.0,0.0,0.1,0.0,0.0,0.0,0.0,0.0,0.0,0.17,0.0,0.0,0.0,0.0,0.0,0.0,0.17,0.0,0.0,0.0,0.0,0.0,0.0,0.17,0.00418422189601,-0.0699503905005,0.0912601607833,-0.00786282169732,-0.010483503176,-0.0112386875204,0.05,0.0,0.0,0.0,0.0,0.0,0.0,0.05,0.0,0.0,0.0,0.0,0.0,0.0,0.05,0.0,0.0,0.0,0.0,0.0,0.0,0.09,0.0,0.0,0.0,0.0,0.0,0.0,0.09,0.0,0.0,0.0,0.0,0.0,0.0,0.09
1336386851075961828,52,1336386851075961828,/odom,/base_link,-0.0571629938074,-0.011175151723,0.0164356963501,0.00725491387945,0.000152463539,-0.0337765141044,0.999403066873,0.1,0.0,0.0,0.0,0.0,0.0,0.0,0.1,0.0,0.0,0.0,0.0,0.0,0.0,0.1,0.0,0.0,0.0,0.0,0.0,0.0,0.17,0.0,0.0,0.0,0.0,0.0,0.0,0.17,0.0,0.0,0.0,0.0,0.0,0.0,0.17,-0.0331267040494,0.00554673836103,0.0701751758951,0.0339712679391,0.00854358356904,-0.010699275068,0.05,0.0,0.0,0.0,0.0,0.0,0.0,0.05,0.0,0.0,0.0,0.0,0.0,0.0,0.05,0.0,0.0,0.0,0.0,0.0,0.0,0.09,0.0,0.0,0.0,0.0,0.0,0.0,0.09,0.0,0.0,0.0,0.0,0.0,0.0,0.09
1336386851175199032,53,1336386851175199032,/odom,/base_link,-0.0594466385136,-0.0143317146434,0.0247939183947,0.00809779919162,0.000162784852015,-0.0342776929371,0.999379526965,0.1,0.0,0.0,0.0,0.0,0.0,0.0,0.1,0.0,0.0,0.0,0.0,0.0,0.0,0.1,0.0,0.0,0.0,0.0,0.0,0.0,0.17,0.0,0.0,0.0,0.0,0.0,0.0,0.17,0.0,0.0,0.0,0.0,0.0,0.0,0.17,-0.0208790273915,-0.0320654991939,0.0846816625986,0.0169751028982,0.000708453351077,-0.0101095393588,0.05,0.0,0.0,0.0,0.0,0.0,0.0,0.05,0.0,0.0,0.0,0.0,0.0,0.0,0.05,0.0,0.0,0.0,0.0,0.0,0.0,0.09,0.0,0.0,0.0,0.0,0.0,0.0,0.09,0.0,0.0,0.0,0.0,0.0,0.0,0.09
1336386851274435997,54,1336386851274435997,/odom,/base_link,-0.0616638057471,-0.0152751728187,0.0339848312686,0.00933349787318,0.000106341738901,-0.034455176817,0.999362654545,0.1,0.0,0.0,0.0,0.0,0.0,0.0,0.1,0.0,0.0,0.0,0.0,0.0,0.0,0.1,0.0,0.0,0.0,0.0,0.0,0.0,0.17,0.0,0.0,0.0,0.0,0.0,0.0,0.17,0.0,0.0,0.0,0.0,0.0,0.0,0.17,-0.021719861845,-0.00951631555335,0.0927627864169,0.0249308822917,-0.000312094953564,-0.00357314296672,0.05,0.0,0.0,0.0,0.0,0.0,0.0,0.05,0.0,0.0,0.0,0.0,0.0,0.0,0.05,0.0,0.0,0.0,0.0,0.0,0.0,0.09,0.0,0.0,0.0,0.0,0.0,0.0,0.09,0.0,0.0,0.0,0.0,0.0,0.0,0.09
1336386851373672962,55,1336386851373672962,/odom,/base_link,-0.0673544466802,-0.0229008937349,0.0443649811081,0.00901475850892,0.000692742849893,-0.0345917913724,0.999360626704,0.1,0.0,0.0,0.0,0.0,0.0,0.0,0.1,0.0,0.0,0.0,0.0,0.0,0.0,0.1,0.0,0.0,0.0,0.0,0.0,0.0,0.17,0.0,0.0,0.0,0.0,0.0,0.0,0.17,0.0,0.0,0.0,0.0,0.0,0.0,0.17,-0.052005529102,-0.0786463512194,0.106040184584,-0.00682623340316,0.0115636409904,-0.00286394155917,0.05,0.0,0.0,0.0,0.0,0.0,0.0,0.05,0.0,0.0,0.0,0.0,0.0,0.0,0.05,0.0,0.0,0.0,0.0,0.0,0.0,0.09,0.0,0.0,0.0,0.0,0.0,0.0,0.09,0.0,0.0,0.0,0.0,0.0,0.0,0.09
1336386851472909927,56,1336386851472909927,/odom,/base_link,-0.0645686288672,-0.0165465674636,0.0546873703946,0.012169781865,-0.000844191287043,-0.034376135666,0.999334511086,0.1,0.0,0.0,0.0,0.0,0.0,0.0,0.1,0.0,0.0,0.0,0.0,0.0,0.0,0.1,0.0,0.0,0.0,0.0,0.0,0.0,0.17,0.0,0.0,0.0,0.0,0.0,0.0,0.17,0.0,0.0,0.0,0.0,0.0,0.0,0.17,0.023369954657,0.0676786601478,0.102865144478,0.0646183418088,-0.0287162009257,0.00464858273686,0.05,0.0,0.0,0.0,0.0,0.0,0.0,0.05,0.0,0.0,0.0,0.0,0.0,0.0,0.05,0.0,0.0,0.0,0.0,0.0,0.0,0.09,0.0,0.0,0.0,0.0,0.0,0.0,0.09,0.0,0.0,0.0,0.0,0.0,0.0,0.09
1336386851572145939,57,1336386851572145939,/odom,/base_link,-0.0662039669959,-0.0195486208227,0.0665308887373,0.0127967542203,-0.00130445593009,-0.0345298865374,0.999320883606,0.1,0.0,0.0,0.0,0.0,0.0,0.0,0.1,0.0,0.0,0.0,0.0,0.0,0.0,0.1,0.0,0.0,0.0,0.0,0.0,0.0,0.17,0.0,0.0,0.0,0.0,0.0,0.0,0.17,0.0,0.0,0.0,0.0,0.0,0.0,0.17,-0.0142596908668,-0.0283932421623,0.120087117735,0.0129471818679,-0.00887355530135,-0.00300384888399,0.05,0.0,0.0,0.0,0.0,0.0,0.0,0.05,0.0,0.0,0.0,0.0,0.0,0.0,0.05,0.0,0.0,0.0,0.0,0.0,0.0,0.09,0.0,0.0,0.0,0.0,0.0,0.0,0.09,0.0,0.0,0.0,0.0,0.0,0.0,0.09
1336386851671383858,58,1336386851671383858,/odom,/base_link,-0.0686981152858,-0.0209642412054,0.0785025972385,0.0135436626919,-0.0017598021748,-0.0349760104925,0.999294826859,0.1,0.0,0.0,0.0,0.0,0.0,0.0,0.1,0.0,0.0,0.0,0.0,0.0,0.0,0.1,0.0,0.0,0.0,0.0,0.0,0.0,0.17,0.0,0.0,0.0,0.0,0.0,0.0,0.17,0.0,0.0,0.0,0.0,0.0,0.0,0.17,-0.0238801547881,-0.012863607857,0.121047804261,0.015354532036,-0.00876659546394,-0.0089052280076,0.05,0.0,0.0,0.0,0.0,0.0,0.0,0.05,0.0,0.0,0.0,0.0,0.0,0.0,0.05,0.0,0.0,0.0,0.0,0.0,0.0,0.09,0.0,0.0,0.0,0.0,0.0,0.0,0.09,0.0,0.0,0.0,0.0,0.0,0.0,0.09
1336386851770620823,59,1336386851770620823,/odom,/base_link,-0.0703574150345,-0.0223030635952,0.0906406793823,0.0142533333771,-0.00234124654768,-0.0353725147763,0.999269806534,0.1,0.0,0.0,0.0,0.0,0.0,0.0,0.1,0.0,0.0,0.0,0.0,0.0,0.0,0.1,0.0,0.0,0.0,0.0,0.0,0.0,0.17,0.0,0.0,0.0,0.0,0.0,0.0,0.17,0.0,0.0,0.0,0.0,0.0,0.0,0.17,-0.0154215440412,-0.011295342265,0.122706661692,0.0146950900453,-0.0113189102318,-0.007869524211,0.05,0.0,0.0,0.0,0.0,0.0,0.0,0.05,0.0,0.0,0.0,0.0,0.0,0.0,0.05,0.0,0.0,0.0,0.0,0.0,0.0,0.09,0.0,0.0,0.0,0.0,0.0,0.0,0.09,0.0,0.0,0.0,0.0,0.0,0.0,0.09
1336386851869858027,60,1336386851869858027,/odom,/base_link,-0.0735517248105,-0.022819566456,0.103153019183,0.0148991592876,-0.00256701261119,-0.0360380710748,0.999236049656,0.1,0.0,0.0,0.0,0.0,0.0,0.0,0.1,0.0,0.0,0.0,0.0,0.0,0.0,0.1,0.0,0.0,0.0,0.0,0.0,0.0,0.17,0.0,0.0,0.0,0.0,0.0,0.0,0.17,0.0,0.0,0.0,0.0,0.0,0.0,0.17,-0.0312766178554,-0.00385043832023,0.126363027668,0.0131455388833,-0.00427908439082,-0.0133933358114,0.05,0.0,0.0,0.0,0.0,0.0,0.0,0.05,0.0,0.0,0.0,0.0,0.0,0.0,0.05,0.0,0.0,0.0,0.0,0.0,0.0,0.09,0.0,0.0,0.0,0.0,0.0,0.0,0.09,0.0,0.0,0.0,0.0,0.0,0.0,0.09
1336386851969094992,61,1336386851969094992,/odom,/base_link,-0.0760962827475,-0.0250076213096,0.116102649945,0.0147637892867,-0.0028269033706,-0.0366009076157,0.999216899729,0.1,0.0,0.0,0.0,0.0,0.0,0.0,0.1,0.0,0.0,0.0,0.0,0.0,0.0,0.1,0.0,0.0,0.0,0.0,0.0,0.0,0.17,0.0,0.0,0.0,0.0,0.0,0.0,0.17,0.0,0.0,0.0,0.0,0.0,0.0,0.17,-0.0234553206852,-0.0199168603703,0.13124386604,-0.00256074180786,-0.00550209606306,-0.0112634858473,0.05,0.0,0.0,0.0,0.0,0.0,0.0,0.05,0.0,0.0,0.0,0.0,0.0,0.0,0.05,0.0,0.0,0.0,0.0,0.0,0.0,0.09,0.0,0.0,0.0,0.0,0.0,0.0,0.09,0.0,0.0,0.0,0.0,0.0,0.0,0.09
1336386852068331003,62,1336386852068331003,/odom,/base_link,-0.0743185789776,-0.0251017657506,0.129858613603,0.0148548970072,-0.00399177834495,-0.0368415817077,0.999202729979,0.1,0.0,0.0,0.0,0.0,0.0,0.0,0.1,0.0,0.0,0.0,0.0,0.0,0.0,0.1,0.0,0.0,0.0,0.0,0.0,0.0,0.17,0.0,0.0,0.0,0.0,0.0,0.0,0.17,0.0,0.0,0.0,0.0,0.0,0.0,0.17,0.0185683857548,0.00448162398523,0.138463254902,0.0026845239427,-0.0234636946352,-0.00451577770457,0.05,0.0,0.0,0.0,0.0,0.0,0.0,0.05,0.0,0.0,0.0,0.0,0.0,0.0,0.05,0.0,0.0,0.0,0.0,0.0,0.0,0.09,0.0,0.0,0.0,0.0,0.0,0.0,0.09,0.0,0.0,0.0,0.0,0.0,0.0,0.09
1336386852167567968,63,1336386852167567968,/odom,/base_link,-0.0763009231278,-0.0258573522817,0.143317557047,0.0143756942522,-0.00411062390806,-0.0369731434865,0.999204397932,0.1,0.0,0.0,0.0,0.0,0.0,0.0,0.1,0.0,0.0,0.0,0.0,0.0,0.0,0.1,0.0,0.0,0.0,0.0,0.0,0.0,0.17,0.0,0.0,0.0,0.0,0.0,0.0,0.17,0.0,0.0,0.0,0.0,0.0,0.0,0.17,-0.0184260719989,-0.00499222752226,0.135965122682,-0.00957288860675,-0.00278833765491,-0.00257398307698,0.05,0.0,0.0,0.0,0.0,0.0,0.0,0.05,0.0,0.0,0.0,0.0,0.0,0.0,0.05,0.0,0.0,0.0,0.0,0.0,0.0,0.09,0.0,0.0,0.0,0.0,0.0,0.0,0.09,0.0,0.0,0.0,0.0,0.0,0.0,0.09
1336386852266804934,64,1336386852266804934,/odom,/base_link,-0.0770634941894,-0.0273526291356,0.156785507913,0.0134408692066,-0.00427770821131,-0.0368811556167,0.999220108188,0.1,0.0,0.0,0.0,0.0,0.0,0.0,0.1,0.0,0.0,0.0,0.0,0.0,0.0,0.1,0.0,0.0,0.0,0.0,0.0,0.0,0.17,0.0,0.0,0.0,0.0,0.0,0.0,0.17,0.0,0.0,0.0,0.0,0.0,0.0,0.17,-0.00557738770496,-0.011647040919,0.136153967439,-0.0186977002924,-0.00403333276238,0.00198998876447,0.05,0.0,0.0,0.0,0.0,0.0,0.0,0.05,0.0,0.0,0.0,0.0,0.0,0.0,0.05,0.0,0.0,0.0,0.0,0.0,0.0,0.09,0.0,0.0,0.0,0.0,0.0,0.0,0.09,0.0,0.0,0.0,0.0,0.0,0.0,0.09
1336386852366041899,65,1336386852366041899,/odom,/base_link,-0.0767277585507,-0.0277663742289,0.170951027724,0.0124544785864,-0.0044045385839,-0.0365134673543,0.999245841975,0.1,0.0,0.0,0.0,0.0,0.0,0.0,0.1,0.0,0.0,0.0,0.0,0.0,0.0,0.1,0.0,0.0,0.0,0.0,0.0,0.0,0.17,0.0,0.0,0.0,0.0,0.0,0.0,0.17,0.0,0.0,0.0,0.0,0.0,0.0,0.17,0.00476038200652,-2.81830357649e-05,0.142765986181,-0.0197449991846,-0.00318547796657,0.00754305351875,0.05,0.0,0.0,0.0,0.0,0.0,0.0,0.05,0.0,0.0,0.0,0.0,0.0,0.0,0.05,0.0,0.0,0.0,0.0,0.0,0.0,0.09,0.0,0.0,0.0,0.0,0.0,0.0,0.09,0.0,0.0,0.0,0.0,0.0,0.0,0.09
1336386852465278864,66,1336386852465278864,/odom,/base_link,-0.0740731111251,-0.0247174955141,0.184582523922,0.0121793194152,-0.00494484649145,-0.0358793319555,0.999269676419,0.1,0.0,0.0,0.0,0.0,0.0,0.0,0.1,0.0,0.0,0.0,0.0,0.0,0.0,0.1,0.0,0.0,0.0,0.0,0.0,0.0,0.17,0.0,0.0,0.0,0.0,0.0,0.0,0.17,0.0,0.0,0.0,0.0,0.0,0.0,0.17,0.0255171182498,0.0360440416727,0.136300522573,-0.00509340338638,-0.0109222346636,0.0129481735666,0.05,0.0,0.0,0.0,0.0,0.0,0.0,0.05,0.0,0.0,0.0,0.0,0.0,0.0,0.05,0.0,0.0,0.0,0.0,0.0,0.0,0.09,0.0,0.0,0.0,0.0,0.0,0.0,0.09,0.0,0.0,0.0,0.0,0.0,0.0,0.09
1336386852564515829,67,1336386852564515829,/odom,/base_link,-0.0741026185494,-0.0277067371313,0.198851179996,0.0100570433433,-0.0045351141441,-0.035437198904,0.999311009422,0.1,0.0,0.0,0.0,0.0,0.0,0.0,0.1,0.0,0.0,0.0,0.0,0.0,0.0,0.1,0.0,0.0,0.0,0.0,0.0,0.0,0.17,0.0,0.0,0.0,0.0,0.0,0.0,0.17,0.0,0.0,0.0,0.0,0.0,0.0,0.17,0.00316229480815,-0.0265062178728,0.144459703834,-0.0430030464127,0.00682964865943,0.00904496795943,0.05,0.0,0.0,0.0,0.0,0.0,0.0,0.05,0.0,0.0,0.0,0.0,0.0,0.0,0.05,0.0,0.0,0.0,0.0,0.0,0.0,0.09,0.0,0.0,0.0,0.0,0.0,0.0,0.09,0.0,0.0,0.0,0.0,0.0,0.0,0.09
1336386852663753986,68,1336386852663753986,/odom,/base_link,-0.0723743950207,-0.0261117280392,0.213308740837,0.00897380936434,-0.00427341550724,-0.0350178162883,0.999337260992,0.1,0.0,0.0,0.0,0.0,0.0,0.0,0.1,0.0,0.0,0.0,0.0,0.0,0.0,0.1,0.0,0.0,0.0,0.0,0.0,0.0,0.17,0.0,0.0,0.0,0.0,0.0,0.0,0.17,0.0,0.0,0.0,0.0,0.0,0.0,0.17,0.0174472889466,0.0202358903719,0.145161882952,-0.0219698523921,0.00458429327317,0.0085109344008,0.05,0.0,0.0,0.0,0.0,0.0,0.0,0.05,0.0,0.0,0.0,0.0,0.0,0.0,0.05,0.0,0.0,0.0,0.0,0.0,0.0,0.09,0.0,0.0,0.0,0.0,0.0,0.0,0.09,0.0,0.0,0.0,0.0,0.0,0.0,0.09
1336386852762989998,69,1336386852762989998,/odom,/base_link,-0.0732291913394,-0.0290384708352,0.227295500695,0.00651131875177,-0.00322778929439,-0.0345454436256,0.999376703966,0.1,0.0,0.0,0.0,0.0,0.0,0.0,0.1,0.0,0.0,0.0,0.0,0.0,0.0,0.1,0.0,0.0,0.0,0.0,0.0,0.0,0.17,0.0,0.0,0.0,0.0,0.0,0.0,0.17,0.0,0.0,0.0,0.0,0.0,0.0,0.17,-0.00541064713328,-0.0274477553466,0.141515680869,-0.0503005411042,0.0194105122857,0.00956470094406,0.05,0.0,0.0,0.0,0.0,0.0,0.0,0.05,0.0,0.0,0.0,0.0,0.0,0.0,0.05,0.0,0.0,0.0,0.0,0.0,0.0,0.09,0.0,0.0,0.0,0.0,0.0,0.0,0.09,0.0,0.0,0.0,0.0,0.0,0.0,0.09
1336386852862227917,70,1336386852862227917,/odom,/base_link,-0.0711262800992,-0.0272652856416,0.242166820604,0.00524622682169,-0.00278700933094,-0.034467709273,0.999388156174,0.1,0.0,0.0,0.0,0.0,0.0,0.0,0.1,0.0,0.0,0.0,0.0,0.0,0.0,0.1,0.0,0.0,0.0,0.0,0.0,0.0,0.17,0.0,0.0,0.0,0.0,0.0,0.0,0.17,0.0,0.0,0.0,0.0,0.0,0.0,0.17,0.0208044675559,0.0212698460079,0.149464583387,-0.025783579471,0.00800793299223,0.00159807740131,0.05,0.0,0.0,0.0,0.0,0.0,0.0,0.05,0.0,0.0,0.0,0.0,0.0,0.0,0.05,0.0,0.0,0.0,0.0,0.0,0.0,0.09,0.0,0.0,0.0,0.0,0.0,0.0,0.09,0.0,0.0,0.0,0.0,0.0,0.0,0.09
1336386852961464882,71,1336386852961464882,/odom,/base_link,-0.0715396602487,-0.0268478229136,0.256007829932,0.00377344054728,-0.00151663813239,-0.0345642905921,0.99939420189,0.1,0.0,0.0,0.0,0.0,0.0,0.0,0.1,0.0,0.0,0.0,0.0,0.0,0.0,0.1,0.0,0.0,0.0,0.0,0.0,0.0,0.17,0.0,0.0,0.0,0.0,0.0,0.0,0.17,0.0,0.0,0.0,0.0,0.0,0.0,0.17,-0.00371904619966,0.00539896908648,0.139445894732,-0.0305526029087,0.0245541828622,-0.00199268273206,0.05,0.0,0.0,0.0,0.0,0.0,0.0,0.05,0.0,0.0,0.0,0.0,0.0,0.0,0.05,0.0,0.0,0.0,0.0,0.0,0.0,0.09,0.0,0.0,0.0,0.0,0.0,0.0,0.09,0.0,0.0,0.0,0.0,0.0,0.0,0.09
1336386853060699940,72,1336386853060699940,/odom,/base_link,-0.0711171497791,-0.0293679250804,0.271628511424,0.00152530167853,-0.000520794876432,-0.0350051531253,0.99938583214,0.1,0.0,0.0,0.0,0.0,0.0,0.0,0.1,0.0,0.0,0.0,0.0,0.0,0.0,0.1,0.0,0.0,0.0,0.0,0.0,0.0,0.17,0.0,0.0,0.0,0.0,0.0,0.0,0.17,0.0,0.0,0.0,0.0,0.0,0.0,0.17,0.00643836804455,-0.0238360335153,0.157580569335,-0.0459885252557,0.0184583827409,-0.00889269103019,0.05,0.0,0.0,0.0,0.0,0.0,0.0,0.05,0.0,0.0,0.0,0.0,0.0,0.0,0.05,0.0,0.0,0.0,0.0,0.0,0.0,0.09,0.0,0.0,0.0,0.0,0.0,0.0,0.09,0.0,0.0,0.0,0.0,0.0,0.0,0.09
1336386853159937859,73,1336386853159937859,/odom,/base_link,-0.0702781981053,-0.0307950607449,0.285604272292,-0.000336132819172,0.00043334349662,-0.0355496226117,0.999367761918,0.1,0.0,0.0,0.0,0.0,0.0,0.0,0.1,0.0,0.0,0.0,0.0,0.0,0.0,0.1,0.0,0.0,0.0,0.0,0.0,0.0,0.17,0.0,0.0,0.0,0.0,0.0,0.0,0.17,0.0,0.0,0.0,0.0,0.0,0.0,0.17,0.00957099807288,-0.0133196642886,0.14086373855,-0.0381698550827,0.0178873837998,-0.0109888235266,0.05,0.0,0.0,0.0,0.0,0.0,0.0,0.05,0.0,0.0,0.0,0.0,0.0,0.0,0.05,0.0,0.0,0.0,0.0,0.0,0.0,0.09,0.0,0.0,0.0,0.0,0.0,0.0,0.09,0.0,0.0,0.0,0.0,0.0,0.0,0.09
1336386853259174824,74,1336386853259174824,/odom,/base_link,-0.0699959054541,-0.0296463142968,0.299300217505,-0.00119620007233,0.0015837473179,-0.0361250321507,0.99934530714,0.1,0.0,0.0,0.0,0.0,0.0,0.0,0.1,0.0,0.0,0.0,0.0,0.0,0.0,0.1,0.0,0.0,0.0,0.0,0.0,0.0,0.17,0.0,0.0,0.0,0.0,0.0,0.0,0.17,0.0,0.0,0.0,0.0,0.0,0.0,0.17,0.00189868823254,0.0116516786454,0.138022405322,-0.0181419990965,0.0225582275177,-0.011605156364,0.05,0.0,0.0,0.0,0.0,0.0,0.0,0.05,0.0,0.0,0.0,0.0,0.0,0.0,0.05,0.0,0.0,0.0,0.0,0.0,0.0,0.09,0.0,0.0,0.0,0.0,0.0,0.0,0.09,0.0,0.0,0.0,0.0,0.0,0.0,0.09
1336386853358412027,75,1336386853358412027,/odom,/base_link,-0.0710777777976,-0.0318936450459,0.313630079593,-0.0029781679927,0.00309675706407,-0.0367119496077,0.999316653202,0.1,0.0,0.0,0.0,0.0,0.0,0.0,0.1,0.0,0.0,0.0,0.0,0.0,0.0,0.1,0.0,0.0,0.0,0.0,0.0,0.0,0.17,0.0,0.0,0.0,0.0,0.0,0.0,0.17,0.0,0.0,0.0,0.0,0.0,0.0,0.17,-0.00968278767243,-0.0237357435673,0.144311959992,-0.0369733380684,0.0291905525566,-0.011862108311,0.05,0.0,0.0,0.0,0.0,0.0,0.0,0.05,0.0,0.0,0.0,0.0,0.0,0.0,0.05,0.0,0.0,0.0,0.0,0.0,0.0,0.09,0.0,0.0,0.0,0.0,0.0,0.0,0.09,0.0,0.0,0.0,0.0,0.0,0.0,0.09
1336386853457648993,76,1336386853457648993,/odom,/base_link,-0.0712773614381,-0.0340142999138,0.327989238188,-0.00435030859299,0.00434425383201,-0.0374100564169,0.999281086558,0.1,0.0,0.0,0.0,0.0,0.0,0.0,0.1,0.0,0.0,0.0,0.0,0.0,0.0,0.1,0.0,0.0,0.0,0.0,0.0,0.0,0.17,0.0,0.0,0.0,0.0,0.0,0.0,0.17,0.0,0.0,0.0,0.0,0.0,0.0,0.17,-0.00130128267553,-0.0223533226591,0.144555094868,-0.0285165101354,0.0241535063371,-0.0140969620129,0.05,0.0,0.0,0.0,0.0,0.0,0.0,0.05,0.0,0.0,0.0,0.0,0.0,0.0,0.05,0.0,0.0,0.0,0.0,0.0,0.0,0.09,0.0,0.0,0.0,0.0,0.0,0.0,0.09,0.0,0.0,0.0,0.0,0.0,0.0,0.09
1336386853556885958,77,1336386853556885958,/odom,/base_link,-0.0698423691028,-0.0347051124335,0.341970517584,-0.00475217118874,0.00505063088783,-0.0379476431331,0.999255665171,0.1,0.0,0.0,0.0,0.0,0.0,0.0,0.1,0.0,0.0,0.0,0.0,0.0,0.0,0.1,0.0,0.0,0.0,0.0,0.0,0.0,0.17,0.0,0.0,0.0,0.0,0.0,0.0,0.17,0.0,0.0,0.0,0.0,0.0,0.0,0.17,0.0137626021581,-0.00713162335168,0.140949160387,-0.00858096661844,0.013972308491,-0.0108190365035,0.05,0.0,0.0,0.0,0.0,0.0,0.0,0.05,0.0,0.0,0.0,0.0,0.0,0.0,0.05,0.0,0.0,0.0,0.0,0.0,0.0,0.09,0.0,0.0,0.0,0.0,0.0,0.0,0.09,0.0,0.0,0.0,0.0,0.0,0.0,0.09
1336386853656121969,78,1336386853656121969,/odom,/base_link,-0.068646070088,-0.0363780778951,0.356201452627,-0.0053950469609,0.00562165737837,-0.0384536124032,0.999230008622,0.1,0.0,0.0,0.0,0.0,0.0,0.0,0.1,0.0,0.0,0.0,0.0,0.0,0.0,0.1,0.0,0.0,0.0,0.0,0.0,0.0,0.17,0.0,0.0,0.0,0.0,0.0,0.0,0.17,0.0,0.0,0.0,0.0,0.0,0.0,0.17,0.0119033181275,-0.0173123970406,0.143363536992,-0.013334533105,0.0110592909805,-0.0102200734751,0.05,0.0,0.0,0.0,0.0,0.0,0.0,0.05,0.0,0.0,0.0,0.0,0.0,0.0,0.05,0.0,0.0,0.0,0.0,0.0,0.0,0.09,0.0,0.0,0.0,0.0,0.0,0.0,0.09,0.0,0.0,0.0,0.0,0.0,0.0,0.09
1336386853755359888,79,1336386853755359888,/odom,/base_link,-0.0687210282117,-0.0385065874533,0.369414263137,-0.00562791824918,0.0065467835855,-0.0389775772434,0.999202789544,0.1,0.0,0.0,0.0,0.0,0.0,0.0,0.1,0.0,0.0,0.0,0.0,0.0,0.0,0.1,0.0,0.0,0.0,0.0,0.0,0.0,0.17,0.0,0.0,0.0,0.0,0.0,0.0,0.17,0.0,0.0,0.0,0.0,0.0,0.0,0.17,-0.000544046530214,-0.0229349520493,0.132895814855,-0.00535012778377,0.018509842762,-0.0104985311065,0.05,0.0,0.0,0.0,0.0,0.0,0.0,0.05,0.0,0.0,0.0,0.0,0.0,0.0,0.05,0.0,0.0,0.0,0.0,0.0,0.0,0.09,0.0,0.0,0.0,0.0,0.0,0.0,0.09,0.0,0.0,0.0,0.0,0.0,0.0,0.09
1336386853854596853,80,1336386853854596853,/odom,/base_link,-0.0700335696351,-0.0414752790052,0.38281511576,-0.00588149002949,0.00760371225746,-0.0394021068434,0.999177194301,0.1,0.0,0.0,0.0,0.0,0.0,0.0,0.1,0.0,0.0,0.0,0.0,0.0,0.0,0.1,0.0,0.0,0.0,0.0,0.0,0.0,0.17,0.0,0.0,0.0,0.0,0.0,0.0,0.17,0.0,0.0,0.0,0.0,0.0,0.0,0.17,-0.0125601126926,-0.0324393329705,0.134518761391,-0.00588351245905,0.0211364683764,-0.0084827396359,0.05,0.0,0.0,0.0,0.0,0.0,0.0,0.05,0.0,0.0,0.0,0.0,0.0,0.0,0.05,0.0,0.0,0.0,0.0,0.0,0.0,0.09,0.0,0.0,0.0,0.0,0.0,0.0,0.09,0.0,0.0,0.0,0.0,0.0,0.0,0.09
1336386853953834057,81,1336386853953834057,/odom,/base_link,-0.0694329076781,-0.0442128300572,0.396257140944,-0.00590642040569,0.00788783580695,-0.0398050561428,0.999158873128,0.1,0.0,0.0,0.0,0.0,0.0,0.0,0.1,0.0,0.0,0.0,0.0,0.0,0.0,0.1,0.0,0.0,0.0,0.0,0.0,0.0,0.17,0.0,0.0,0.0,0.0,0.0,0.0,0.17,0.0,0.0,0.0,0.0,0.0,0.0,0.17,0.00621243951339,-0.0286955091388,0.135215532351,-0.000668071551412,0.00575221213362,-0.00809894146364,0.05,0.0,0.0,0.0,0.0,0.0,0.0,0.05,0.0,0.0,0.0,0.0,0.0,0.0,0.05,0.0,0.0,0.0,0.0,0.0,0.0,0.09,0.0,0.0,0.0,0.0,0.0,0.0,0.09,0.0,0.0,0.0,0.0,0.0,0.0,0.09
1336386854053071022,82,1336386854053071022,/odom,/base_link,-0.0707395120787,-0.049059851144,0.408975030322,-0.00608935856273,0.00853811267833,-0.0401275676234,0.999139529125,0.1,0.0,0.0,0.0,0.0,0.0,0.0,0.1,0.0,0.0,0.0,0.0,0.0,0.0,0.1,0.0,0.0,0.0,0.0,0.0,0.0,0.17,0.0,0.0,0.0,0.0,0.0,0.0,0.17,0.0,0.0,0.0,0.0,0.0,0.0,0.17,-0.0111932763401,-0.0513238911288,0.127372341849,-0.00415649442117,0.012989223791,-0.00646155198723,0.05,0.0,0.0,0.0,0.0,0.0,0.0,0.05,0.0,0.0,0.0,0.0,0.0,0.0,0.05,0.0,0.0,0.0,0.0,0.0,0.0,0.09,0.0,0.0,0.0,0.0,0.0,0.0,0.09,0.0,0.0,0.0,0.0,0.0,0.0,0.09
1336386854152307034,83,1336386854152307034,/odom,/base_link,-0.0693573695326,-0.049573138252,0.422329968767,-0.0048948073062,0.00832487581089,-0.0397092086731,0.999164609086,0.1,0.0,0.0,0.0,0.0,0.0,0.0,0.1,0.0,0.0,0.0,0.0,0.0,0.0,0.1,0.0,0.0,0.0,0.0,0.0,0.0,0.17,0.0,0.0,0.0,0.0,0.0,0.0,0.17,0.0,0.0,0.0,0.0,0.0,0.0,0.17,0.0120659086508,-0.00576976425521,0.13473298127,0.0241577847977,-0.00338346257422,0.00862401075781,0.05,0.0,0.0,0.0,0.0,0.0,0.0,0.05,0.0,0.0,0.0,0.0,0.0,0.0,0.05,0.0,0.0,0.0,0.0,0.0,0.0,0.09,0.0,0.0,0.0,0.0,0.0,0.0,0.09,0.0,0.0,0.0,0.0,0.0,0.0,0.09
1336386854251543999,84,1336386854251543999,/odom,/base_link,-0.0708505712736,-0.0518010938865,0.434720213418,-0.00391982016888,0.00883975025455,-0.0393091347164,0.999180306928,0.1,0.0,0.0,0.0,0.0,0.0,0.0,0.1,0.0,0.0,0.0,0.0,0.0,0.0,0.1,0.0,0.0,0.0,0.0,0.0,0.0,0.17,0.0,0.0,0.0,0.0,0.0,0.0,0.17,0.0,0.0,0.0,0.0,0.0,0.0,0.17,-0.0152424742365,-0.0248755676987,0.124370921924,0.0191556417532,0.0111061729629,0.00828320454342,0.05,0.0,0.0,0.0,0.0,0.0,0.0,0.05,0.0,0.0,0.0,0.0,0.0,0.0,0.05,0.0,0.0,0.0,0.0,0.0,0.0,0.09,0.0,0.0,0.0,0.0,0.0,0.0,0.09,0.0,0.0,0.0,0.0,0.0,0.0,0.09
1336386854350781918,85,1336386854350781918,/odom,/base_link,-0.0715732586218,-0.0570131994191,0.447287346032,-0.00387402476744,0.00883358127725,-0.0385418807192,0.999210429892,0.1,0.0,0.0,0.0,0.0,0.0,0.0,0.1,0.0,0.0,0.0,0.0,0.0,0.0,0.1,0.0,0.0,0.0,0.0,0.0,0.0,0.17,0.0,0.0,0.0,0.0,0.0,0.0,0.17,0.0,0.0,0.0,0.0,0.0,0.0,0.17,-0.00532734534319,-0.0540089150195,0.126106917983,0.000792763644858,-0.000153923440313,0.0154817818467,0.05,0.0,0.0,0.0,0.0,0.0,0.0,0.05,0.0,0.0,0.0,0.0,0.0,0.0,0.05,0.0,0.0,0.0,0.0,0.0,0.0,0.09,0.0,0.0,0.0,0.0,0.0,0.0,0.09,0.0,0.0,0.0,0.0,0.0,0.0,0.09
1336386854450017929,86,1336386854450017929,/odom,/base_link,-0.0711302414267,-0.0577393175253,0.461086388865,-0.00235768287621,0.00829537956555,-0.0377183420018,0.99925119699,0.1,0.0,0.0,0.0,0.0,0.0,0.0,0.1,0.0,0.0,0.0,0.0,0.0,0.0,0.1,0.0,0.0,0.0,0.0,0.0,0.0,0.17,0.0,0.0,0.0,0.0,0.0,0.0,0.17,0.0,0.0,0.0,0.0,0.0,0.0,0.17,0.00260119865918,-0.00812280003418,0.139055377278,0.0308108295204,-0.00973204953509,0.0168440848415,0.05,0.0,0.0,0.0,0.0,0.0,0.0,0.05,0.0,0.0,0.0,0.0,0.0,0.0,0.05,0.0,0.0,0.0,0.0,0.0,0.0,0.09,0.0,0.0,0.0,0.0,0.0,0.0,0.09,0.0,0.0,0.0,0.0,0.0,0.0,0.09
1336386854549254894,87,1336386854549254894,/odom,/base_link,-0.0712055005663,-0.0603594163354,0.473901877848,-0.00142161497564,0.00773727139354,-0.0369545397089,0.999285982908,0.1,0.0,0.0,0.0,0.0,0.0,0.0,0.1,0.0,0.0,0.0,0.0,0.0,0.0,0.1,0.0,0.0,0.0,0.0,0.0,0.0,0.17,0.0,0.0,0.0,0.0,0.0,0.0,0.17,0.0,0.0,0.0,0.0,0.0,0.0,0.17,-0.000882823906925,-0.0270734679319,0.129000477002,0.0191493996197,-0.0105701106562,0.0155384003694,0.05,0.0,0.0,0.0,0.0,0.0,0.0,0.05,0.0,0.0,0.0,0.0,0.0,0.0,0.05,0.0,0.0,0.0,0.0,0.0,0.0,0.09,0.0,0.0,0.0,0.0,0.0,0.0,0.09,0.0,0.0,0.0,0.0,0.0,0.0,0.09
1336386854648491859,88,1336386854648491859,/odom,/base_link,-0.0726724011406,-0.0632150838762,0.486782076971,-0.000870080342052,0.00741329975371,-0.0364886640597,0.999306190986,0.1,0.0,0.0,0.0,0.0,0.0,0.0,0.1,0.0,0.0,0.0,0.0,0.0,0.0,0.1,0.0,0.0,0.0,0.0,0.0,0.0,0.17,0.0,0.0,0.0,0.0,0.0,0.0,0.17,0.0,0.0,0.0,0.0,0.0,0.0,0.17,-0.0146071184548,-0.0302319281125,0.129480852977,0.0112767904875,-0.00613032236465,0.00947422456081,0.05,0.0,0.0,0.0,0.0,0.0,0.0,0.05,0.0,0.0,0.0,0.0,0.0,0.0,0.05,0.0,0.0,0.0,0.0,0.0,0.0,0.09,0.0,0.0,0.0,0.0,0.0,0.0,0.09,0.0,0.0,0.0,0.0,0.0,0.0,0.09
1336386854747728825,89,1336386854747728825,/odom,/base_link,-0.073428262905,-0.063671430412,0.498871324539,0.000654319978232,0.00684384296744,-0.0361538515691,0.999322586904,0.1,0.0,0.0,0.0,0.0,0.0,0.0,0.1,0.0,0.0,0.0,0.0,0.0,0.0,0.1,0.0,0.0,0.0,0.0,0.0,0.0,0.17,0.0,0.0,0.0,0.0,0.0,0.0,0.17,0.0,0.0,0.0,0.0,0.0,0.0,0.17,-0.00905741778884,-0.00541941567558,0.121689600298,0.0310701619931,-0.0103560493551,0.00697288513066,0.05,0.0,0.0,0.0,0.0,0.0,0.0,0.05,0.0,0.0,0.0,0.0,0.0,0.0,0.05,0.0,0.0,0.0,0.0,0.0,0.0,0.09,0.0,0.0,0.0,0.0,0.0,0.0,0.09,0.0,0.0,0.0,0.0,0.0,0.0,0.09
1336386854846966028,90,1336386854846966028,/odom,/base_link,-0.0736962407932,-0.0650944540392,0.512014298763,0.00162388991573,0.00596323595456,-0.0359014145206,0.999336225319,0.1,0.0,0.0,0.0,0.0,0.0,0.0,0.1,0.0,0.0,0.0,0.0,0.0,0.0,0.1,0.0,0.0,0.0,0.0,0.0,0.0,0.17,0.0,0.0,0.0,0.0,0.0,0.0,0.17,0.0,0.0,0.0,0.0,0.0,0.0,0.17,-0.00347486595904,-0.0143896102442,0.132416510322,0.0201338646401,-0.0170275900598,0.00523938559278,0.05,0.0,0.0,0.0,0.0,0.0,0.0,0.05,0.0,0.0,0.0,0.0,0.0,0.0,0.05,0.0,0.0,0.0,0.0,0.0,0.0,0.09,0.0,0.0,0.0,0.0,0.0,0.0,0.09,0.0,0.0,0.0,0.0,0.0,0.0,0.09
1336386854946202993,91,1336386854946202993,/odom,/base_link,-0.0756936513749,-0.0677333204378,0.523584554495,0.00195133855605,0.00562470615694,-0.0357923304074,0.99934151522,0.1,0.0,0.0,0.0,0.0,0.0,0.0,0.1,0.0,0.0,0.0,0.0,0.0,0.0,0.1,0.0,0.0,0.0,0.0,0.0,0.0,0.17,0.0,0.0,0.0,0.0,0.0,0.0,0.17,0.0,0.0,0.0,0.0,0.0,0.0,0.17,-0.0195700078508,-0.0276390414245,0.116443435654,0.00682660771549,-0.0065782672372,0.00225125816498,0.05,0.0,0.0,0.0,0.0,0.0,0.0,0.05,0.0,0.0,0.0,0.0,0.0,0.0,0.05,0.0,0.0,0.0,0.0,0.0,0.0,0.09,0.0,0.0,0.0,0.0,0.0,0.0,0.09,0.0,0.0,0.0,0.0,0.0,0.0,0.09
1336386855045439959,92,1336386855045439959,/odom,/base_link,-0.0760068083046,-0.0691334050373,0.53500349404,0.002362809623,0.00470559988524,-0.0357256035627,0.99934776515,0.1,0.0,0.0,0.0,0.0,0.0,0.0,0.1,0.0,0.0,0.0,0.0,0.0,0.0,0.1,0.0,0.0,0.0,0.0,0.0,0.0,0.17,0.0,0.0,0.0,0.0,0.0,0.0,0.17,0.0,0.0,0.0,0.0,0.0,0.0,0.17,-0.00344804713477,-0.0138956150153,0.11508491202,0.00894242646574,-0.0182125408103,0.0014312108062,0.05,0.0,0.0,0.0,0.0,0.0,0.0,0.05,0.0,0.0,0.0,0.0,0.0,0.0,0.05,0.0,0.0,0.0,0.0,0.0,0.0,0.09,0.0,0.0,0.0,0.0,0.0,0.0,0.09,0.0,0.0,0.0,0.0,0.0,0.0,0.09
1336386855144676924,93,1336386855144676924,/odom,/base_link,-0.0756279933215,-0.0684836029281,0.545146865489,0.00285769589021,0.00382204744549,-0.0355417279963,0.999356798695,0.1,0.0,0.0,0.0,0.0,0.0,0.0,0.1,0.0,0.0,0.0,0.0,0.0,0.0,0.1,0.0,0.0,0.0,0.0,0.0,0.0,0.17,0.0,0.0,0.0,0.0,0.0,0.0,0.17,0.0,0.0,0.0,0.0,0.0,0.0,0.17,0.00236137133293,0.00725219414893,0.102210105095,0.0105856206443,-0.017431090189,0.00379888283428,0.05,0.0,0.0,0.0,0.0,0.0,0.0,0.05,0.0,0.0,0.0,0.0,0.0,0.0,0.05,0.0,0.0,0.0,0.0,0.0,0.0,0.09,0.0,0.0,0.0,0.0,0.0,0.0,0.09,0.0,0.0,0.0,0.0,0.0,0.0,0.09
1336386855243913889,94,1336386855243913889,/odom,/base_link,-0.0763816434989,-0.0687915356651,0.553215009961,0.00234636536987,0.00342691048341,-0.0352770015102,0.999368942893,0.1,0.0,0.0,0.0,0.0,0.0,0.0,0.1,0.0,0.0,0.0,0.0,0.0,0.0,0.1,0.0,0.0,0.0,0.0,0.0,0.0,0.17,0.0,0.0,0.0,0.0,0.0,0.0,0.17,0.0,0.0,0.0,0.0,0.0,0.0,0.17,-0.0079922729668,-0.00319248824006,0.0812601965978,-0.0100366697744,-0.00831033720519,0.00532387730143,0.05,0.0,0.0,0.0,0.0,0.0,0.0,0.05,0.0,0.0,0.0,0.0,0.0,0.0,0.05,0.0,0.0,0.0,0.0,0.0,0.0,0.09,0.0,0.0,0.0,0.0,0.0,0.0,0.09,0.0,0.0,0.0,0.0,0.0,0.0,0.09
1336386855343149900,95,1336386855343149900,/odom,/base_link,-0.0775306438137,-0.0685011815742,0.559662052941,0.00108149143795,0.00325330039326,-0.0353619507061,0.999368690151,0.1,0.0,0.0,0.0,0.0,0.0,0.0,0.1,0.0,0.0,0.0,0.0,0.0,0.0,0.1,0.0,0.0,0.0,0.0,0.0,0.0,0.17,0.0,0.0,0.0,0.0,0.0,0.0,0.17,0.0,0.0,0.0,0.0,0.0,0.0,0.17,-0.0122113721525,0.00239097371656,0.0648727084631,-0.025346845465,-0.00440001578001,-0.00179031350411,0.05,0.0,0.0,0.0,0.0,0.0,0.0,0.05,0.0,0.0,0.0,0.0,0.0,0.0,0.05,0.0,0.0,0.0,0.0,0.0,0.0,0.09,0.0,0.0,0.0,0.0,0.0,0.0,0.09,0.0,0.0,0.0,0.0,0.0,0.0,0.09
1336386855442386866,96,1336386855442386866,/odom,/base_link,-0.0761293774875,-0.0649600331348,0.56461558196,0.000404610278086,0.0024240444215,-0.0355243105063,0.99936579072,0.1,0.0,0.0,0.0,0.0,0.0,0.0,0.1,0.0,0.0,0.0,0.0,0.0,0.0,0.1,0.0,0.0,0.0,0.0,0.0,0.0,0.17,0.0,0.0,0.0,0.0,0.0,0.0,0.17,0.0,0.0,0.0,0.0,0.0,0.0,0.17,0.0112345455104,0.0366889711926,0.0499203869629,-0.0130314043405,-0.0171878414166,-0.00329847099266,0.05,0.0,0.0,0.0,0.0,0.0,0.0,0.05,0.0,0.0,0.0,0.0,0.0,0.0,0.05,0.0,0.0,0.0,0.0,0.0,0.0,0.09,0.0,0.0,0.0,0.0,0.0,0.0,0.09,0.0,0.0,0.0,0.0,0.0,0.0,0.09
1336386855541625023,97,1336386855541625023,/odom,/base_link,-0.0754245618515,-0.0629193010387,0.568607199293,-0.00136498291149,0.00202455736602,-0.0356154100968,0.999362587129,0.1,0.0,0.0,0.0,0.0,0.0,0.0,0.1,0.0,0.0,0.0,0.0,0.0,0.0,0.1,0.0,0.0,0.0,0.0,0.0,0.0,0.17,0.0,0.0,0.0,0.0,0.0,0.0,0.17,0.0,0.0,0.0,0.0,0.0,0.0,0.17,0.00542814391854,0.0210419779568,0.0402361550994,-0.0353504798331,-0.00931348661238,-0.00192030184642,0.05,0.0,0.0,0.0,0.0,0.0,0.0,0.05,0.0,0.0,0.0,0.0,0.0,0.0,0.05,0.0,0.0,0.0,0.0,0.0,0.0,0.09,0.0,0.0,0.0,0.0,0.0,0.0,0.09,0.0,0.0,0.0,0.0,0.0,0.0,0.09
1336386855640861988,98,1336386855640861988,/odom,/base_link,-0.0750129992617,-0.0606836711481,0.571532155019,-0.00352175020072,0.0020908275475,-0.0358590595141,0.999348464534,0.1,0.0,0.0,0.0,0.0,0.0,0.0,0.1,0.0,0.0,0.0,0.0,0.0,0.0,0.1,0.0,0.0,0.0,0.0,0.0,0.0,0.17,0.0,0.0,0.0,0.0,0.0,0.0,0.17,0.0,0.0,0.0,0.0,0.0,0.0,0.17,0.00241650853478,0.0226814996522,0.0295495047369,-0.0434773568103,-0.000206073416683,-0.00500364618359,0.05,0.0,0.0,0.0,0.0,0.0,0.0,0.05,0.0,0.0,0.0,0.0,0.0,0.0,0.05,0.0,0.0,0.0,0.0,0.0,0.0,0.09,0.0,0.0,0.0,0.0,0.0,0.0,0.09,0.0,0.0,0.0,0.0,0.0,0.0,0.09
1336386855740098000,99,1336386855740098000,/odom,/base_link,-0.0751933020761,-0.0612903106998,0.573284935524,-0.00694914341042,0.00257470165341,-0.035814305161,0.99933098414,0.1,0.0,0.0,0.0,0.0,0.0,0.0,0.1,0.0,0.0,0.0,0.0,0.0,0.0,0.1,0.0,0.0,0.0,0.0,0.0,0.0,0.17,0.0,0.0,0.0,0.0,0.0,0.0,0.17,0.0,0.0,0.0,0.0,0.0,0.0,0.17,-0.00144334652245,-0.00635439457941,0.0176119892185,-0.0693835504576,0.00726622110941,0.000778677732518,0.05,0.0,0.0,0.0,0.0,0.0,0.0,0.05,0.0,0.0,0.0,0.0,0.0,0.0,0.05,0.0,0.0,0.0,0.0,0.0,0.0,0.09,0.0,0.0,0.0,0.0,0.0,0.0,0.09,0.0,0.0,0.0,0.0,0.0,0.0,0.09
