%time,field.header.seq,field.header.stamp,field.header.frame_id,field.child_frame_id,field.pose.pose.position.x,field.pose.pose.position.y,field.pose.pose.position.z,field.pose.pose.orientation.x,field.pose.pose.orientation.y,field.pose.pose.orientation.z,field.pose.pose.orientation.w,field.pose.covariance0,field.pose.covariance1,field.pose.covariance2,field.pose.covariance3,field.pose.covariance4,field.pose.covariance5,field.pose.covariance6,field.pose.covariance7,field.pose.covariance8,field.pose.covariance9,field.pose.covariance10,field.pose.covariance11,field.pose.covariance12,field.pose.covariance13,field.pose.covariance14,field.pose.covariance15,field.pose.covariance16,field.pose.covariance17,field.pose.covariance18,field.pose.covariance19,field.pose.covariance20,field.pose.covariance21,field.pose.covariance22,field.pose.covariance23,field.pose.covariance24,field.pose.covariance25,field.pose.covariance26,field.pose.covariance27,field.pose.covariance28,field.pose.covariance29,field.pose.covariance30,field.pose.covariance31,field.pose.covariance32,field.pose.covariance33,field.pose.covariance34,field.pose.covariance35,field.twist.twist.linear.x,field.twist.twist.linear.y,field.twist.twist.linear.z,field.twist.twist.angular.x,field.twist.twist.angular.y,field.twist.twist.angular.z,field.twist.covariance0,field.twist.covariance1,field.twist.covariance2,field.twist.covariance3,field.twist.covariance4,field.twist.covariance5,field.twist.covariance6,field.twist.covariance7,field.twist.covariance8,field.twist.covariance9,field.twist.covariance10,field.twist.covariance11,field.twist.covariance12,field.twist.covariance13,field.twist.covariance14,field.twist.covariance15,field.twist.covariance16,field.twist.covariance17,field.twist.covariance18,field.twist.covariance19,field.twist.covariance20,field.twist.covariance21,field.twist.covariance22,field.twist.covariance23,field.twist.covariance24,field.twist.covariance25,field.twist.covariance26,field.twist.covariance27,field.twist.covariance28,field.twist.covariance29,field.twist.covariance30,field.twist.covariance31,field.twist.covariance32,field.twist.covariance33,field.twist.covariance34,field.twist.covariance35
1336386230349927902,0,1336386230349927902,/odom,/base_link,-0.00696962641667,-0.00221284411517,0.00262052088786,-0.00163105711371,-0.00957360140562,0.00336047279722,0.999947195122,0.1,0.0,0.0,0.0,0.0,0.0,0.0,0.1,0.0,0.0,0.0,0.0,0.0,0.0,0.1,0.0,0.0,0.0,0.0,0.0,0.0,0.17,0.0,0.0,0.0,0.0,0.0,0.0,0.17,0.0,0.0,0.0,0.0,0.0,0.0,0.17,0.0,0.0,0.0,0.0,0.0,0.0,0.05,0.0,0.0,0.0,0.0,0.0,0.0,0.05,0.0,0.0,0.0,0.0,0.0,0.0,0.05,0.0,0.0,0.0,0.0,0.0,0.0,0.09,0.0,0.0,0.0,0.0,0.0,0.0,0.09,0.0,0.0,0.0,0.0,0.0,0.0,0.09
1336386231342296839,1,1336386231342296839,/odom,/base_link,-0.016170029529,-0.00905014459056,0.0071831777518,0.00480776065738,-0.0107769710284,0.0033217547515,0.999924851315,0.1,0.0,0.0,0.0,0.0,0.0,0.0,0.1,0.0,0.0,0.0,0.0,0.0,0.0,0.1,0.0,0.0,0.0,0.0,0.0,0.0,0.17,0.0,0.0,0.0,0.0,0.0,0.0,0.17,0.0,0.0,0.0,0.0,0.0,0.0,0.17,-0.0092277833495,-0.00684296062223,0.00475245308496,0.0129670982977,-0.00246904760088,-0.000206066680077,0.05,0.0,0.0,0.0,0.0,0.0,0.0,0.05,0.0,0.0,0.0,0.0,0.0,0.0,0.05,0.0,0.0,0.0,0.0,0.0,0.0,0.09,0.0,0.0,0.0,0.0,0.0,0.0,0.09,0.0,0.0,0.0,0.0,0.0,0.0,0.09
1336386231441534042,2,1336386231441534042,/odom,/base_link,-0.0157479024472,-0.0103242581384,0.00683385098717,0.00520113744111,-0.0100271495467,0.00311489057961,0.999931348592,0.1,0.0,0.0,0.0,0.0,0.0,0.0,0.1,0.0,0.0,0.0,0.0,0.0,0.0,0.1,0.0,0.0,0.0,0.0,0.0,0.0,0.17,0.0,0.0,0.0,0.0,0.0,0.0,0.17,0.0,0.0,0.0,0.0,0.0,0.0,0.17,0.00409269730742,-0.0129004861528,-0.00348631591191,0.00793205323107,0.0150655998362,-0.00432730068565,0.05,0.0,0.0,0.0,0.0,0.0,0.0,0.05,0.0,0.0,0.0,0.0,0.0,0.0,0.05,0.0,0.0,0.0,0.0,0.0,0.0,0.09,0.0,0.0,0.0,0.0,0.0,0.0,0.09,0.0,0.0,0.0,0.0,0.0,0.0,0.09
1336386231540771961,3,1336386231540771961,/odom,/base_link,-0.0156129326381,-0.00818683830262,0.00681320690399,0.00570016796814,-0.00889417764982,0.00281153072623,0.999940246707,0.1,0.0,0.0,0.0,0.0,0.0,0.0,0.1,0.0,0.0,0.0,0.0,0.0,0.0,0.1,0.0,0.0,0.0,0.0,0.0,0.0,0.17,0.0,0.0,0.0,0.0,0.0,0.0,0.17,0.0,0.0,0.0,0.0,0.0,0.0,0.17,0.00148750807578,0.0215259897064,-0.000460580004488,0.0100654543487,0.0227705581698,-0.00633353517457,0.05,0.0,0.0,0.0,0.0,0.0,0.0,0.05,0.0,0.0,0.0,0.0,0.0,0.0,0.05,0.0,0.0,0.0,0.0,0.0,0.0,0.09,0.0,0.0,0.0,0.0,0.0,0.0,0.09,0.0,0.0,0.0,0.0,0.0,0.0,0.09
1336386231640007973,4,1336386231640007973,/odom,/base_link,-0.0165847043495,-0.0135035577035,0.00951345458344,0.0047776385797,-0.00769626937341,0.00217384910727,0.999956607052,0.1,0.0,0.0,0.0,0.0,0.0,0.0,0.1,0.0,0.0,0.0,0.0,0.0,0.0,0.1,0.0,0.0,0.0,0.0,0.0,0.0,0.17,0.0,0.0,0.0,0.0,0.0,0.0,0.17,0.0,0.0,0.0,0.0,0.0,0.0,0.17,-0.00960176950006,-0.0532073020116,0.0279915893957,-0.018639838807,0.0241231292904,-0.0128242343457,0.05,0.0,0.0,0.0,0.0,0.0,0.0,0.05,0.0,0.0,0.0,0.0,0.0,0.0,0.05,0.0,0.0,0.0,0.0,0.0,0.0,0.09,0.0,0.0,0.0,0.0,0.0,0.0,0.09,0.0,0.0,0.0,0.0,0.0,0.0,0.09
1336386231739244938,5,1336386231739244938,/odom,/base_link,-0.0162002854772,-0.0158104349945,0.0103248605907,0.00438266988914,-0.00657250947876,0.00157368810986,0.999967558389,0.1,0.0,0.0,0.0,0.0,0.0,0.0,0.1,0.0,0.0,0.0,0.0,0.0,0.0,0.1,0.0,0.0,0.0,0.0,0.0,0.0,0.17,0.0,0.0,0.0,0.0,0.0,0.0,0.17,0.0,0.0,0.0,0.0,0.0,0.0,0.17,0.00389991860577,-0.023184143005,0.00833845520466,-0.00800468066054,0.022608248821,-0.012142412317,0.05,0.0,0.0,0.0,0.0,0.0,0.0,0.05,0.0,0.0,0.0,0.0,0.0,0.0,0.05,0.0,0.0,0.0,0.0,0.0,0.0,0.09,0.0,0.0,0.0,0.0,0.0,0.0,0.09,0.0,0.0,0.0,0.0,0.0,0.0,0.09
1336386231838481903,6,1336386231838481903,/odom,/base_link,-0.0193646573782,-0.00733021489494,0.0106571692155,0.00555918609389,-0.00484132011857,0.000847572903334,0.999972468966,0.1,0.0,0.0,0.0,0.0,0.0,0.0,0.1,0.0,0.0,0.0,0.0,0.0,0.0,0.1,0.0,0.0,0.0,0.0,0.0,0.0,0.17,0.0,0.0,0.0,0.0,0.0,0.0,0.17,0.0,0.0,0.0,0.0,0.0,0.0,0.17,-0.0315760277923,0.0855820167408,0.00301614279218,0.0236687897303,0.034788107269,-0.0149424134409,0.05,0.0,0.0,0.0,0.0,0.0,0.0,0.05,0.0,0.0,0.0,0.0,0.0,0.0,0.05,0.0,0.0,0.0,0.0,0.0,0.0,0.09,0.0,0.0,0.0,0.0,0.0,0.0,0.09,0.0,0.0,0.0,0.0,0.0,0.0,0.09
1336386231937717915,7,1336386231937717915,/odom,/base_link,-0.0158814270021,-0.0129151129219,0.010181670236,0.00418786033109,-0.00430176952201,0.000259160581985,0.999981944557,0.1,0.0,0.0,0.0,0.0,0.0,0.0,0.1,0.0,0.0,0.0,0.0,0.0,0.0,0.1,0.0,0.0,0.0,0.0,0.0,0.0,0.17,0.0,0.0,0.0,0.0,0.0,0.0,0.17,0.0,0.0,0.0,0.0,0.0,0.0,0.17,0.0349599630733,-0.056390007357,-0.00450442641383,-0.0276861719476,0.0108322177852,-0.0117853352184,0.05,0.0,0.0,0.0,0.0,0.0,0.0,0.05,0.0,0.0,0.0,0.0,0.0,0.0,0.05,0.0,0.0,0.0,0.0,0.0,0.0,0.09,0.0,0.0,0.0,0.0,0.0,0.0,0.09,0.0,0.0,0.0,0.0,0.0,0.0,0.09
1336386232036955833,8,1336386232036955833,/odom,/base_link,-0.0161747954633,-0.0160655603507,0.0102304844809,0.0030933689991,-0.00320219535364,-0.000659470285312,0.999989871005,0.1,0.0,0.0,0.0,0.0,0.0,0.0,0.1,0.0,0.0,0.0,0.0,0.0,0.0,0.1,0.0,0.0,0.0,0.0,0.0,0.0,0.17,0.0,0.0,0.0,0.0,0.0,0.0,0.17,0.0,0.0,0.0,0.0,0.0,0.0,0.17,-0.00296718128093,-0.0317395326116,0.000783247653595,-0.0221321074534,0.0220888462797,-0.0185113405238,0.05,0.0,0.0,0.0,0.0,0.0,0.0,0.05,0.0,0.0,0.0,0.0,0.0,0.0,0.05,0.0,0.0,0.0,0.0,0.0,0.0,0.09,0.0,0.0,0.0,0.0,0.0,0.0,0.09,0.0,0.0,0.0,0.0,0.0,0.0,0.09
1336386232136191845,9,1336386232136191845,/odom,/base_link,-0.0137707908053,-0.0156863095074,0.0112726497302,0.00248181172758,-0.00263714058304,-0.00141952267014,0.999992435499,0.1,0.0,0.0,0.0,0.0,0.0,0.0,0.1,0.0,0.0,0.0,0.0,0.0,0.0,0.1,0.0,0.0,0.0,0.0,0.0,0.0,0.17,0.0,0.0,0.0,0.0,0.0,0.0,0.17,0.0,0.0,0.0,0.0,0.0,0.0,0.17,0.0242867041207,0.00391811670277,0.0103225973465,-0.0123819085594,0.0113326390417,-0.0153136495062,0.05,0.0,0.0,0.0,0.0,0.0,0.0,0.05,0.0,0.0,0.0,0.0,0.0,0.0,0.05,0.0,0.0,0.0,0.0,0.0,0.0,0.09,0.0,0.0,0.0,0.0,0.0,0.0,0.09,0.0,0.0,0.0,0.0,0.0,0.0,0.09
1336386232235429049,10,1336386232235429049,/odom,/base_link,-0.0155210787516,-0.0108299282596,0.0118343464341,0.00253589085706,-0.00149583415193,-0.00203018924743,0.999993605014,0.1,0.0,0.0,0.0,0.0,0.0,0.0,0.1,0.0,0.0,0.0,0.0,0.0,0.0,0.1,0.0,0.0,0.0,0.0,0.0,0.0,0.17,0.0,0.0,0.0,0.0,0.0,0.0,0.17,0.0,0.0,0.0,0.0,0.0,0.0,0.17,-0.0177468616775,0.0489145974759,0.0055106050672,0.00102472270676,0.0229724813253,-0.0123670471684,0.05,0.0,0.0,0.0,0.0,0.0,0.0,0.05,0.0,0.0,0.0,0.0,0.0,0.0,0.05,0.0,0.0,0.0,0.0,0.0,0.0,0.09,0.0,0.0,0.0,0.0,0.0,0.0,0.09,0.0,0.0,0.0,0.0,0.0,0.0,0.09
1336386232334666014,11,1336386232334666014,/odom,/base_link,-0.0170285423141,-0.0111993795553,0.0125200152081,0.00162372613939,-0.00055376577128,-0.0026493005378,0.999995019019,0.1,0.0,0.0,0.0,0.0,0.0,0.0,0.1,0.0,0.0,0.0,0.0,0.0,0.0,0.1,0.0,0.0,0.0,0.0,0.0,0.0,0.17,0.0,0.0,0.0,0.0,0.0,0.0,0.17,0.0,0.0,0.0,0.0,0.0,0.0,0.17,-0.0151546076031,-0.00374932053695,0.00697374946207,-0.018440738403,0.0189172035753,-0.0124979479826,0.05,0.0,0.0,0.0,0.0,0.0,0.0,0.05,0.0,0.0,0.0,0.0,0.0,0.0,0.05,0.0,0.0,0.0,0.0,0.0,0.0,0.09,0.0,0.0,0.0,0.0,0.0,0.0,0.09,0.0,0.0,0.0,0.0,0.0,0.0,0.09
1336386232433903933,12,1336386232433903933,/odom,/base_link,-0.0141323010156,-0.0119840460312,0.0119029975033,0.000616417146682,-0.000552721103242,-0.00294822070622,0.999995311251,0.1,0.0,0.0,0.0,0.0,0.0,0.0,0.1,0.0,0.0,0.0,0.0,0.0,0.0,0.1,0.0,0.0,0.0,0.0,0.0,0.0,0.17,0.0,0.0,0.0,0.0,0.0,0.0,0.17,0.0,0.0,0.0,0.0,0.0,0.0,0.17,0.0292194744258,-0.00777239310313,-0.00622444331311,-0.0203041930902,-4.25080351241e-05,-0.00601306126171,0.05,0.0,0.0,0.0,0.0,0.0,0.0,0.05,0.0,0.0,0.0,0.0,0.0,0.0,0.05,0.0,0.0,0.0,0.0,0.0,0.0,0.09,0.0,0.0,0.0,0.0,0.0,0.0,0.09,0.0,0.0,0.0,0.0,0.0,0.0,0.09
1336386232533139944,13,1336386232533139944,/odom,/base_link,-0.0145646978414,-0.00621482212125,0.0116269152814,0.000617268864444,-0.000213525563064,-0.00320752446297,0.999994642572,0.1,0.0,0.0,0.0,0.0,0.0,0.0,0.1,0.0,0.0,0.0,0.0,0.0,0.0,0.1,0.0,0.0,0.0,0.0,0.0,0.0,0.17,0.0,0.0,0.0,0.0,0.0,0.0,0.17,0.0,0.0,0.0,0.0,0.0,0.0,0.17,-0.00470307996692,0.0581062118238,-0.00284872338962,-5.8692409309e-06,0.0068329280642,-0.00523023999744,0.05,0.0,0.0,0.0,0.0,0.0,0.0,0.05,0.0,0.0,0.0,0.0,0.0,0.0,0.05,0.0,0.0,0.0,0.0,0.0,0.0,0.09,0.0,0.0,0.0,0.0,0.0,0.0,0.09,0.0,0.0,0.0,0.0,0.0,0.0,0.09
1336386232632376909,14,1336386232632376909,/odom,/base_link,-0.0167555529279,-0.0114089528488,0.0137195923438,-0.00106693339821,0.000237888048636,-0.00323055082243,0.999994184285,0.1,0.0,0.0,0.0,0.0,0.0,0.0,0.1,0.0,0.0,0.0,0.0,0.0,0.0,0.1,0.0,0.0,0.0,0.0,0.0,0.0,0.17,0.0,0.0,0.0,0.0,0.0,0.0,0.17,0.0,0.0,0.0,0.0,0.0,0.0,0.17,-0.0217318478512,-0.0524551243691,0.0211617188772,-0.0339721523728,0.0089884850479,-0.000462463579455,0.05,0.0,0.0,0.0,0.0,0.0,0.0,0.05,0.0,0.0,0.0,0.0,0.0,0.0,0.05,0.0,0.0,0.0,0.0,0.0,0.0,0.09,0.0,0.0,0.0,0.0,0.0,0.0,0.09,0.0,0.0,0.0,0.0,0.0,0.0,0.09
1336386232731613874,15,1336386232731613874,/odom,/base_link,-0.0188466415896,-0.00931396863309,0.0130453559581,-0.00140008792062,0.000493054098524,-0.00320777525018,0.999993753395,0.1,0.0,0.0,0.0,0.0,0.0,0.0,0.1,0.0,0.0,0.0,0.0,0.0,0.0,0.1,0.0,0.0,0.0,0.0,0.0,0.0,0.17,0.0,0.0,0.0,0.0,0.0,0.0,0.17,0.0,0.0,0.0,0.0,0.0,0.0,0.17,-0.0212044527247,0.0209888107714,-0.00675934519416,-0.00673101599469,0.00512035214385,0.000462872683699,0.05,0.0,0.0,0.0,0.0,0.0,0.0,0.05,0.0,0.0,0.0,0.0,0.0,0.0,0.05,0.0,0.0,0.0,0.0,0.0,0.0,0.09,0.0,0.0,0.0,0.0,0.0,0.0,0.09,0.0,0.0,0.0,0.0,0.0,0.0,0.09
1336386232830850840,16,1336386232830850840,/odom,/base_link,-0.0190353874685,-0.00908210422739,0.0146095012251,-0.00205426812024,4.7594226479e-05,-0.00300378407674,0.999993377477,0.1,0.0,0.0,0.0,0.0,0.0,0.0,0.1,0.0,0.0,0.0,0.0,0.0,0.0,0.1,0.0,0.0,0.0,0.0,0.0,0.0,0.17,0.0,0.0,0.0,0.0,0.0,0.0,0.17,0.0,0.0,0.0,0.0,0.0,0.0,0.17,-0.00193232538544,0.00228003022863,0.0157662929743,-0.0131573622628,-0.00902568953153,0.00409207364774,0.05,0.0,0.0,0.0,0.0,0.0,0.0,0.05,0.0,0.0,0.0,0.0,0.0,0.0,0.05,0.0,0.0,0.0,0.0,0.0,0.0,0.09,0.0,0.0,0.0,0.0,0.0,0.0,0.09,0.0,0.0,0.0,0.0,0.0,0.0,0.09
1336386232930088997,17,1336386232930088997,/odom,/base_link,-0.0189766807533,-0.0110733553692,0.0149756589115,-0.00285500464611,-0.000505339670438,-0.00254115820394,0.99999256802,0.1,0.0,0.0,0.0,0.0,0.0,0.0,0.1,0.0,0.0,0.0,0.0,0.0,0.0,0.1,0.0,0.0,0.0,0.0,0.0,0.0,0.17,0.0,0.0,0.0,0.0,0.0,0.0,0.17,0.0,0.0,0.0,0.0,0.0,0.0,0.17,0.000711804913135,-0.0200764530384,0.00360728588607,-0.0161045748708,-0.0112111292317,0.00929977935786,0.05,0.0,0.0,0.0,0.0,0.0,0.0,0.05,0.0,0.0,0.0,0.0,0.0,0.0,0.05,0.0,0.0,0.0,0.0,0.0,0.0,0.09,0.0,0.0,0.0,0.0,0.0,0.0,0.09,0.0,0.0,0.0,0.0,0.0,0.0,0.09
1336386233029325008,18,1336386233029325008,/odom,/base_link,-0.0206405879473,-0.0110700623269,0.0172051773167,-0.00329522898665,-0.000998196352865,-0.00236811207078,0.999991268519,0.1,0.0,0.0,0.0,0.0,0.0,0.0,0.1,0.0,0.0,0.0,0.0,0.0,0.0,0.1,0.0,0.0,0.0,0.0,0.0,0.0,0.17,0.0,0.0,0.0,0.0,0.0,0.0,0.17,0.0,0.0,0.0,0.0,0.0,0.0,0.17,-0.0167440821428,-0.000180307986166,0.0224833427961,-0.00884527571598,-0.00996546388508,0.00346359977959,0.05,0.0,0.0,0.0,0.0,0.0,0.0,0.05,0.0,0.0,0.0,0.0,0.0,0.0,0.05,0.0,0.0,0.0,0.0,0.0,0.0,0.09,0.0,0.0,0.0,0.0,0.0,0.0,0.09,0.0,0.0,0.0,0.0,0.0,0.0,0.09
1336386233128561974,19,1336386233128561974,/odom,/base_link,-0.0210913285258,-0.0155719415882,0.0193849289531,-0.00427793994422,-0.00184710134332,-0.00193684481828,0.999987267958,0.1,0.0,0.0,0.0,0.0,0.0,0.0,0.1,0.0,0.0,0.0,0.0,0.0,0.0,0.1,0.0,0.0,0.0,0.0,0.0,0.0,0.17,0.0,0.0,0.0,0.0,0.0,0.0,0.17,0.0,0.0,0.0,0.0,0.0,0.0,0.17,-0.00428325162695,-0.0455296455451,0.0216744060575,-0.0197562483753,-0.0171841233378,0.00865479400655,0.05,0.0,0.0,0.0,0.0,0.0,0.0,0.05,0.0,0.0,0.0,0.0,0.0,0.0,0.05,0.0,0.0,0.0,0.0,0.0,0.0,0.09,0.0,0.0,0.0,0.0,0.0,0.0,0.09,0.0,0.0,0.0,0.0,0.0,0.0,0.09
1336386233227798939,20,1336386233227798939,/odom,/base_link,-0.0253004313736,-0.0186988215796,0.0208970490899,-0.00485289684266,-0.00233506989861,-0.00158119115069,0.999984248214,0.1,0.0,0.0,0.0,0.0,0.0,0.0,0.1,0.0,0.0,0.0,0.0,0.0,0.0,0.1,0.0,0.0,0.0,0.0,0.0,0.0,0.17,0.0,0.0,0.0,0.0,0.0,0.0,0.17,0.0,0.0,0.0,0.0,0.0,0.0,0.17,-0.0422359600512,-0.0318030653818,0.0151229792347,-0.0115553819091,-0.0098875060192,0.00714688997565,0.05,0.0,0.0,0.0,0.0,0.0,0.0,0.05,0.0,0.0,0.0,0.0,0.0,0.0,0.05,0.0,0.0,0.0,0.0,0.0,0.0,0.09,0.0,0.0,0.0,0.0,0.0,0.0,0.09,0.0,0.0,0.0,0.0,0.0,0.0,0.09
1336386233327036858,21,1336386233327036858,/odom,/base_link,-0.0233597199193,-0.0220557240457,0.0214340918648,-0.00535206764508,-0.00386694729609,-0.000999744180319,0.999977701052,0.1,0.0,0.0,0.0,0.0,0.0,0.0,0.1,0.0,0.0,0.0,0.0,0.0,0.0,0.1,0.0,0.0,0.0,0.0,0.0,0.0,0.17,0.0,0.0,0.0,0.0,0.0,0.0,0.17,0.0,0.0,0.0,0.0,0.0,0.0,0.17,0.0196873980746,-0.0338152474375,0.00499176607459,-0.00998439002425,-0.030945435146,0.0115915227164,0.05,0.0,0.0,0.0,0.0,0.0,0.0,0.05,0.0,0.0,0.0,0.0,0.0,0.0,0.05,0.0,0.0,0.0,0.0,0.0,0.0,0.09,0.0,0.0,0.0,0.0,0.0,0.0,0.09,0.0,0.0,0.0,0.0,0.0,0.0,0.09
1336386233426272869,22,1336386233426272869,/odom,/base_link,-0.0247886968217,-0.0198915949107,0.0219131393918,-0.00463010924664,-0.00483319405465,-0.000341636459946,0.999977542552,0.1,0.0,0.0,0.0,0.0,0.0,0.0,0.1,0.0,0.0,0.0,0.0,0.0,0.0,0.1,0.0,0.0,0.0,0.0,0.0,0.0,0.17,0.0,0.0,0.0,0.0,0.0,0.0,0.17,0.0,0.0,0.0,0.0,0.0,0.0,0.17,-0.0144046382451,0.021725586579,0.00517174276217,0.0146207518747,-0.0195297369102,0.0131027011611,0.05,0.0,0.0,0.0,0.0,0.0,0.0,0.05,0.0,0.0,0.0,0.0,0.0,0.0,0.05,0.0,0.0,0.0,0.0,0.0,0.0,0.09,0.0,0.0,0.0,0.0,0.0,0.0,0.09,0.0,0.0,0.0,0.0,0.0,0.0,0.09
1336386233525509834,23,1336386233525509834,/odom,/base_link,-0.0257919345887,-0.0193937987725,0.0227483929099,-0.00402987544214,-0.00595977235082,0.000169861579101,0.999974105847,0.1,0.0,0.0,0.0,0.0,0.0,0.0,0.1,0.0,0.0,0.0,0.0,0.0,0.0,0.1,0.0,0.0,0.0,0.0,0.0,0.0,0.17,0.0,0.0,0.0,0.0,0.0,0.0,0.17,0.0,0.0,0.0,0.0,0.0,0.0,0.17,-0.0100308605731,0.00493074943794,0.00856015919709,0.0121539721017,-0.0227482408831,0.0101447743714,0.05,0.0,0.0,0.0,0.0,0.0,0.0,0.05,0.0,0.0,0.0,0.0,0.0,0.0,0.05,0.0,0.0,0.0,0.0,0.0,0.0,0.09,0.0,0.0,0.0,0.0,0.0,0.0,0.09,0.0,0.0,0.0,0.0,0.0,0.0,0.09
1336386233624747038,24,1336386233624747038,/odom,/base_link,-0.0302758772157,-0.0213405371455,0.0234543092562,-0.00390709947453,-0.00658358368612,0.000537911048328,0.999970550392,0.1,0.0,0.0,0.0,0.0,0.0,0.0,0.1,0.0,0.0,0.0,0.0,0.0,0.0,0.1,0.0,0.0,0.0,0.0,0.0,0.0,0.17,0.0,0.0,0.0,0.0,0.0,0.0,0.17,0.0,0.0,0.0,0.0,0.0,0.0,0.17,-0.0451037059348,-0.0196605493453,0.00749324519773,0.00251611282984,-0.0126025412129,0.00735198014754,0.05,0.0,0.0,0.0,0.0,0.0,0.0,0.05,0.0,0.0,0.0,0.0,0.0,0.0,0.05,0.0,0.0,0.0,0.0,0.0,0.0,0.09,0.0,0.0,0.0,0.0,0.0,0.0,0.09,0.0,0.0,0.0,0.0,0.0,0.0,0.09
1336386233723984003,25,1336386233723984003,/odom,/base_link,-0.0309952664112,-0.0233713539105,0.0254890743701,-0.00367420029588,-0.00769750508114,0.00103409999445,0.999963088971,0.1,0.0,0.0,0.0,0.0,0.0,0.0,0.1,0.0,0.0,0.0,0.0,0.0,0.0,0.1,0.0,0.0,0.0,0.0,0.0,0.0,0.17,0.0,0.0,0.0,0.0,0.0,0.0,0.17,0.0,0.0,0.0,0.0,0.0,0.0,0.17,-0.00700175459691,-0.0206166188923,0.020437417756,0.00474683478453,-0.022491657996,0.00988125664994,0.05,0.0,0.0,0.0,0.0,0.0,0.0,0.05,0.0,0.0,0.0,0.0,0.0,0.0,0.05,0.0,0.0,0.0,0.0,0.0,0.0,0.09,0.0,0.0,0.0,0.0,0.0,0.0,0.09,0.0,0.0,0.0,0.0,0.0,0.0,0.09
1336386233823220968,26,1336386233823220968,/odom,/base_link,-0.0324045315007,-0.0244215697713,0.0257682544606,-0.00319793339059,-0.00862633263472,0.00146906592088,0.999956599785,0.1,0.0,0.0,0.0,0.0,0.0,0.0,0.1,0.0,0.0,0.0,0.0,0.0,0.0,0.1,0.0,0.0,0.0,0.0,0.0,0.0,0.17,0.0,0.0,0.0,0.0,0.0,0.0,0.17,0.0,0.0,0.0,0.0,0.0,0.0,0.17,-0.0141784944139,-0.0105747524126,0.0029539861986,0.00964586607571,-0.0187618409749,0.00862335738807,0.05,0.0,0.0,0.0,0.0,0.0,0.0,0.05,0.0,0.0,0.0,0.0,0.0,0.0,0.05,0.0,0.0,0.0,0.0,0.0,0.0,0.09,0.0,0.0,0.0,0.0,0.0,0.0,0.09,0.0,0.0,0.0,0.0,0.0,0.0,0.09
1336386233922456980,27,1336386233922456980,/odom,/base_link,-0.0338484239253,-0.0233092956905,0.0263958822531,-0.00223717413363,-0.00930172663706,0.00162721997603,0.999952911436,0.1,0.0,0.0,0.0,0.0,0.0,0.0,0.1,0.0,0.0,0.0,0.0,0.0,0.0,0.1,0.0,0.0,0.0,0.0,0.0,0.0,0.17,0.0,0.0,0.0,0.0,0.0,0.0,0.17,0.0,0.0,0.0,0.0,0.0,0.0,0.17,-0.0144052562617,0.0112094294105,0.00664608008157,0.0193695425972,-0.0136505656907,0.0029768417186,0.05,0.0,0.0,0.0,0.0,0.0,0.0,0.05,0.0,0.0,0.0,0.0,0.0,0.0,0.05,0.0,0.0,0.0,0.0,0.0,0.0,0.09,0.0,0.0,0.0,0.0,0.0,0.0,0.09,0.0,0.0,0.0,0.0,0.0,0.0,0.09
1336386234021694899,28,1336386234021694899,/odom,/base_link,-0.034123095839,-0.0257777599816,0.0277054033028,-0.00198297613653,-0.0101235164432,0.00133893171113,0.999945893277,0.1,0.0,0.0,0.0,0.0,0.0,0.0,0.1,0.0,0.0,0.0,0.0,0.0,0.0,0.1,0.0,0.0,0.0,0.0,0.0,0.0,0.17,0.0,0.0,0.0,0.0,0.0,0.0,0.17,0.0,0.0,0.0,0.0,0.0,0.0,0.17,-0.00260392222082,-0.0249243708873,0.0131343284018,0.00504145092633,-0.0165578882796,-0.00589424445779,0.05,0.0,0.0,0.0,0.0,0.0,0.0,0.05,0.0,0.0,0.0,0.0,0.0,0.0,0.05,0.0,0.0,0.0,0.0,0.0,0.0,0.09,0.0,0.0,0.0,0.0,0.0,0.0,0.09,0.0,0.0,0.0,0.0,0.0,0.0,0.09
1336386234120930910,29,1336386234120930910,/odom,/base_link,-0.0375609615338,-0.0260115435529,0.0285417119863,-0.00129546617401,-0.010191517303,0.000971770480733,0.999946753785,0.1,0.0,0.0,0.0,0.0,0.0,0.0,0.1,0.0,0.0,0.0,0.0,0.0,0.0,0.1,0.0,0.0,0.0,0.0,0.0,0.0,0.17,0.0,0.0,0.0,0.0,0.0,0.0,0.17,0.0,0.0,0.0,0.0,0.0,0.0,0.17,-0.0344719285988,-0.00229808248511,0.00911796998544,0.0137785975392,-0.00137411676182,-0.00754237123361,0.05,0.0,0.0,0.0,0.0,0.0,0.0,0.05,0.0,0.0,0.0,0.0,0.0,0.0,0.05,0.0,0.0,0.0,0.0,0.0,0.0,0.09,0.0,0.0,0.0,0.0,0.0,0.0,0.09,0.0,0.0,0.0,0.0,0.0,0.0,0.09
1336386234220168829,30,1336386234220168829,/odom,/base_link,-0.0353024594345,-0.0300717998035,0.0288475521676,-0.00129740009398,-0.0110420892005,0.000207784126595,0.999938171011,0.1,0.0,0.0,0.0,0.0,0.0,0.0,0.1,0.0,0.0,0.0,0.0,0.0,0.0,0.1,0.0,0.0,0.0,0.0,0.0,0.0,0.17,0.0,0.0,0.0,0.0,0.0,0.0,0.17,0.0,0.0,0.0,0.0,0.0,0.0,0.17,0.0227359004537,-0.0409658227678,0.00251212839967,-0.000212775094415,-0.0171229440348,-0.015417890383,0.05,0.0,0.0,0.0,0.0,0.0,0.0,0.05,0.0,0.0,0.0,0.0,0.0,0.0,0.05,0.0,0.0,0.0,0.0,0.0,0.0,0.09,0.0,0.0,0.0,0.0,0.0,0.0,0.09,0.0,0.0,0.0,0.0,0.0,0.0,0.09
1336386234319404840,31,1336386234319404840,/odom,/base_link,-0.0377354589362,-0.0348645143593,0.0308191243252,-0.00136499028268,-0.0107969974425,-0.000609015583663,0.999940593609,0.1,0.0,0.0,0.0,0.0,0.0,0.0,0.1,0.0,0.0,0.0,0.0,0.0,0.0,0.1,0.0,0.0,0.0,0.0,0.0,0.0,0.17,0.0,0.0,0.0,0.0,0.0,0.0,0.17,0.0,0.0,0.0,0.0,0.0,0.0,0.17,-0.0240940568749,-0.0483381105407,0.0202789303078,-0.00154280939427,0.00496144781629,-0.016439304322,0.05,0.0,0.0,0.0,0.0,0.0,0.0,0.05,0.0,0.0,0.0,0.0,0.0,0.0,0.05,0.0,0.0,0.0,0.0,0.0,0.0,0.09,0.0,0.0,0.0,0.0,0.0,0.0,0.09,0.0,0.0,0.0,0.0,0.0,0.0,0.09
1336386234418642044,32,1336386234418642044,/odom,/base_link,-0.0378103661908,-0.0288450519341,0.0305023614878,0.000270906916217,-0.0107067305579,-0.00131136857266,0.999941784727,0.1,0.0,0.0,0.0,0.0,0.0,0.0,0.1,0.0,0.0,0.0,0.0,0.0,0.0,0.1,0.0,0.0,0.0,0.0,0.0,0.0,0.17,0.0,0.0,0.0,0.0,0.0,0.0,0.17,0.0,0.0,0.0,0.0,0.0,0.0,0.17,-0.000895672753456,0.0606647747385,-0.00300854179443,0.0328135852543,0.00185876706807,-0.0145076736547,0.05,0.0,0.0,0.0,0.0,0.0,0.0,0.05,0.0,0.0,0.0,0.0,0.0,0.0,0.05,0.0,0.0,0.0,0.0,0.0,0.0,0.09,0.0,0.0,0.0,0.0,0.0,0.0,0.09,0.0,0.0,0.0,0.0,0.0,0.0,0.09
1336386234517879009,33,1336386234517879009,/odom,/base_link,-0.0397430539795,-0.0331308908508,0.0318626278621,0.000162095507293,-0.0100949983627,-0.00232943425118,0.999946317794,0.1,0.0,0.0,0.0,0.0,0.0,0.0,0.1,0.0,0.0,0.0,0.0,0.0,0.0,0.1,0.0,0.0,0.0,0.0,0.0,0.0,0.17,0.0,0.0,0.0,0.0,0.0,0.0,0.17,0.0,0.0,0.0,0.0,0.0,0.0,0.17,-0.0190639430765,-0.0432309251548,0.0141433229936,-0.00242870572141,0.0123205454617,-0.0204964232069,0.05,0.0,0.0,0.0,0.0,0.0,0.0,0.05,0.0,0.0,0.0,0.0,0.0,0.0,0.05,0.0,0.0,0.0,0.0,0.0,0.0,0.09,0.0,0.0,0.0,0.0,0.0,0.0,0.09,0.0,0.0,0.0,0.0,0.0,0.0,0.09
1336386234617115974,34,1336386234617115974,/odom,/base_link,-0.0415235754443,-0.0304104267518,0.0323357136655,0.00116252878889,-0.00915919929697,-0.0024870156733,0.999954285129,0.1,0.0,0.0,0.0,0.0,0.0,0.0,0.1,0.0,0.0,0.0,0.0,0.0,0.0,0.1,0.0,0.0,0.0,0.0,0.0,0.0,0.17,0.0,0.0,0.0,0.0,0.0,0.0,0.17,0.0,0.0,0.0,0.0,0.0,0.0,0.17,-0.0179698262234,0.0273317619193,0.00512090970095,0.0200854174433,0.0189069558483,-0.00338191555458,0.05,0.0,0.0,0.0,0.0,0.0,0.0,0.05,0.0,0.0,0.0,0.0,0.0,0.0,0.05,0.0,0.0,0.0,0.0,0.0,0.0,0.09,0.0,0.0,0.0,0.0,0.0,0.0,0.09,0.0,0.0,0.0,0.0,0.0,0.0,0.09
1336386234716353893,35,1336386234716353893,/odom,/base_link,-0.0397086636063,-0.030858322163,0.0333519421809,0.00145017438712,-0.00874542399727,-0.00338976605085,0.999954961005,0.1,0.0,0.0,0.0,0.0,0.0,0.0,0.1,0.0,0.0,0.0,0.0,0.0,0.0,0.1,0.0,0.0,0.0,0.0,0.0,0.0,0.17,0.0,0.0,0.0,0.0,0.0,0.0,0.17,0.0,0.0,0.0,0.0,0.0,0.0,0.17,0.0184952599747,-0.00439843276748,0.00991376028652,0.00560943193759,0.00833206818778,-0.0182555867171,0.05,0.0,0.0,0.0,0.0,0.0,0.0,0.05,0.0,0.0,0.0,0.0,0.0,0.0,0.05,0.0,0.0,0.0,0.0,0.0,0.0,0.09,0.0,0.0,0.0,0.0,0.0,0.0,0.09,0.0,0.0,0.0,0.0,0.0,0.0,0.09
1336386234815589905,36,1336386234815589905,/odom,/base_link,-0.0353951237656,-0.0317014360319,0.0326481759298,0.00149001785497,-0.00853987493714,-0.00382472762674,0.999955109913,0.1,0.0,0.0,0.0,0.0,0.0,0.0,0.1,0.0,0.0,0.0,0.0,0.0,0.0,0.1,0.0,0.0,0.0,0.0,0.0,0.0,0.17,0.0,0.0,0.0,0.0,0.0,0.0,0.17,0.0,0.0,0.0,0.0,0.0,0.0,0.17,0.0433936819382,-0.00822323146473,-0.00782726832786,0.000712257000846,0.00413247969936,-0.00877882976159,0.05,0.0,0.0,0.0,0.0,0.0,0.0,0.05,0.0,0.0,0.0,0.0,0.0,0.0,0.05,0.0,0.0,0.0,0.0,0.0,0.0,0.09,0.0,0.0,0.0,0.0,0.0,0.0,0.09,0.0,0.0,0.0,0.0,0.0,0.0,0.09
1336386234914826870,37,1336386234914826870,/odom,/base_link,-0.03448542301,-0.0332528524273,0.0321336650581,0.00136222199399,-0.00757671116925,-0.00438269909811,0.999960764104,0.1,0.0,0.0,0.0,0.0,0.0,0.0,0.1,0.0,0.0,0.0,0.0,0.0,0.0,0.1,0.0,0.0,0.0,0.0,0.0,0.0,0.17,0.0,0.0,0.0,0.0,0.0,0.0,0.17,0.0,0.0,0.0,0.0,0.0,0.0,0.17,0.00919683944342,-0.0155788285895,-0.00529499216044,-0.00274590064753,0.0193848904369,-0.0112512244926,0.05,0.0,0.0,0.0,0.0,0.0,0.0,0.05,0.0,0.0,0.0,0.0,0.0,0.0,0.05,0.0,0.0,0.0,0.0,0.0,0.0,0.09,0.0,0.0,0.0,0.0,0.0,0.0,0.09,0.0,0.0,0.0,0.0,0.0,0.0,0.09
1336386235014063835,38,1336386235014063835,/odom,/base_link,-0.0356460476989,-0.0273310685011,0.0339368152433,0.00246186141259,-0.00618448995191,-0.00491506799007,0.999965766129,0.1,0.0,0.0,0.0,0.0,0.0,0.0,0.1,0.0,0.0,0.0,0.0,0.0,0.0,0.1,0.0,0.0,0.0,0.0,0.0,0.0,0.17,0.0,0.0,0.0,0.0,0.0,0.0,0.17,0.0,0.0,0.0,0.0,0.0,0.0,0.17,-0.0119428536573,0.0596190907063,0.0181867454273,0.021956632599,0.0281407129634,-0.0109345253858,0.05,0.0,0.0,0.0,0.0,0.0,0.0,0.05,0.0,0.0,0.0,0.0,0.0,0.0,0.05,0.0,0.0,0.0,0.0,0.0,0.0,0.09,0.0,0.0,0.0,0.0,0.0,0.0,0.09,0.0,0.0,0.0,0.0,0.0,0.0,0.09
1336386235113301039,39,1336386235113301039,/odom,/base_link,-0.0328434163519,-0.0300906919906,0.033710380038,0.00193012718369,-0.00540180249537,-0.00520206016051,0.999970016405,0.1,0.0,0.0,0.0,0.0,0.0,0.0,0.1,0.0,0.0,0.0,0.0,0.0,0.0,0.1,0.0,0.0,0.0,0.0,0.0,0.0,0.17,0.0,0.0,0.0,0.0,0.0,0.0,0.17,0.0,0.0,0.0,0.0,0.0,0.0,0.17,0.0284842459607,-0.0275412976706,-0.00249632266685,-0.0108295763553,0.0157071541454,-0.00575590309431,0.05,0.0,0.0,0.0,0.0,0.0,0.0,0.05,0.0,0.0,0.0,0.0,0.0,0.0,0.05,0.0,0.0,0.0,0.0,0.0,0.0,0.09,0.0,0.0,0.0,0.0,0.0,0.0,0.09,0.0,0.0,0.0,0.0,0.0,0.0,0.09
1336386235212537050,40,1336386235212537050,/odom,/base_link,-0.0327009361301,-0.0328440884995,0.034357366853,0.00145201703921,-0.00409350771361,-0.0054073856664,0.999975947221,0.1,0.0,0.0,0.0,0.0,0.0,0.0,0.1,0.0,0.0,0.0,0.0,0.0,0.0,0.1,0.0,0.0,0.0,0.0,0.0,0.0,0.17,0.0,0.0,0.0,0.0,0.0,0.0,0.17,0.0,0.0,0.0,0.0,0.0,0.0,0.17,0.00179515486439,-0.0277037917837,0.00660925266796,-0.00979528233617,0.0263090897664,-0.00413622195252,0.05,0.0,0.0,0.0,0.0,0.0,0.0,0.05,0.0,0.0,0.0,0.0,0.0,0.0,0.05,0.0,0.0,0.0,0.0,0.0,0.0,0.09,0.0,0.0,0.0,0.0,0.0,0.0,0.09,0.0,0.0,0.0,0.0,0.0,0.0,0.09
1336386235311774969,41,1336386235311774969,/odom,/base_link,-0.0298046006792,-0.0261047437504,0.0329544287929,0.00220159685983,-0.00321864254551,-0.00539209846516,0.999977859048,0.1,0.0,0.0,0.0,0.0,0.0,0.0,0.1,0.0,0.0,0.0,0.0,0.0,0.0,0.1,0.0,0.0,0.0,0.0,0.0,0.0,0.17,0.0,0.0,0.0,0.0,0.0,0.0,0.17,0.0,0.0,0.0,0.0,0.0,0.0,0.17,0.0283323414357,0.068180329817,-0.0145701850546,0.0150122258176,0.0177135437542,0.000220851951482,0.05,0.0,0.0,0.0,0.0,0.0,0.0,0.05,0.0,0.0,0.0,0.0,0.0,0.0,0.05,0.0,0.0,0.0,0.0,0.0,0.0,0.09,0.0,0.0,0.0,0.0,0.0,0.0,0.09,0.0,0.0,0.0,0.0,0.0,0.0,0.09
1336386235411011934,42,1336386235411011934,/odom,/base_link,-0.0280817875549,-0.0362931760104,0.0349726492788,7.40929296584e-05,-0.00235095348013,-0.00541806041292,0.999982555923,0.1,0.0,0.0,0.0,0.0,0.0,0.0,0.1,0.0,0.0,0.0,0.0,0.0,0.0,0.1,0.0,0.0,0.0,0.0,0.0,0.0,0.17,0.0,0.0,0.0,0.0,0.0,0.0,0.17,0.0,0.0,0.0,0.0,0.0,0.0,0.17,0.0185982806339,-0.102383524529,0.0206730950497,-0.0429725207589,0.0172547972716,-0.000423203032406,0.05,0.0,0.0,0.0,0.0,0.0,0.0,0.05,0.0,0.0,0.0,0.0,0.0,0.0,0.05,0.0,0.0,0.0,0.0,0.0,0.0,0.09,0.0,0.0,0.0,0.0,0.0,0.0,0.09,0.0,0.0,0.0,0.0,0.0,0.0,0.09
1336386235510247946,43,1336386235510247946,/odom,/base_link,-0.0269898922385,-0.0372870710974,0.0348033170431,-0.000570889154324,-0.00140643613688,-0.00526704394893,0.999984977023,0.1,0.0,0.0,0.0,0.0,0.0,0.0,0.1,0.0,0.0,0.0,0.0,0.0,0.0,0.1,0.0,0.0,0.0,0.0,0.0,0.0,0.17,0.0,0.0,0.0,0.0,0.0,0.0,0.17,0.0,0.0,0.0,0.0,0.0,0.0,0.17,0.0111027560416,-0.00989595195482,-0.00175685395794,-0.0130947135547,0.0189653611838,0.00307294335746,0.05,0.0,0.0,0.0,0.0,0.0,0.0,0.05,0.0,0.0,0.0,0.0,0.0,0.0,0.05,0.0,0.0,0.0,0.0,0.0,0.0,0.09,0.0,0.0,0.0,0.0,0.0,0.0,0.09,0.0,0.0,0.0,0.0,0.0,0.0,0.09
1336386235609485865,44,1336386235609485865,/odom,/base_link,-0.026891623169,-0.0382594214075,0.0355014014593,-0.0012850309837,-0.000469070241234,-0.00532066895183,0.999984909461,0.1,0.0,0.0,0.0,0.0,0.0,0.0,0.1,0.0,0.0,0.0,0.0,0.0,0.0,0.1,0.0,0.0,0.0,0.0,0.0,0.0,0.17,0.0,0.0,0.0,0.0,0.0,0.0,0.17,0.0,0.0,0.0,0.0,0.0,0.0,0.17,0.00111320479905,-0.00979511785975,0.00702030822044,-0.0144933283758,0.0188158143995,-0.00104970033322,0.05,0.0,0.0,0.0,0.0,0.0,0.0,0.05,0.0,0.0,0.0,0.0,0.0,0.0,0.05,0.0,0.0,0.0,0.0,0.0,0.0,0.09,0.0,0.0,0.0,0.0,0.0,0.0,0.09,0.0,0.0,0.0,0.0,0.0,0.0,0.09
1336386235708721876,45,1336386235708721876,/odom,/base_link,-0.0265809071921,-0.041146272342,0.0359309580091,-0.00238527314145,0.000190830004103,-0.00545708131935,0.999982247002,0.1,0.0,0.0,0.0,0.0,0.0,0.0,0.1,0.0,0.0,0.0,0.0,0.0,0.0,0.1,0.0,0.0,0.0,0.0,0.0,0.0,0.17,0.0,0.0,0.0,0.0,0.0,0.0,0.17,0.0,0.0,0.0,0.0,0.0,0.0,0.17,0.00344454708522,-0.0290667973082,0.0042508159316,-0.0222460449326,0.0131849412921,-0.00272200440233,0.05,0.0,0.0,0.0,0.0,0.0,0.0,0.05,0.0,0.0,0.0,0.0,0.0,0.0,0.05,0.0,0.0,0.0,0.0,0.0,0.0,0.09,0.0,0.0,0.0,0.0,0.0,0.0,0.09,0.0,0.0,0.0,0.0,0.0,0.0,0.09
1336386235807958841,46,1336386235807958841,/odom,/base_link,-0.0266598734336,-0.0367764114685,0.0342349931095,-0.00222499029669,0.000793625415642,-0.00522840702538,0.999983541533,0.1,0.0,0.0,0.0,0.0,0.0,0.0,0.1,0.0,0.0,0.0,0.0,0.0,0.0,0.1,0.0,0.0,0.0,0.0,0.0,0.0,0.17,0.0,0.0,0.0,0.0,0.0,0.0,0.17,0.0,0.0,0.0,0.0,0.0,0.0,0.17,-0.00127024156123,0.0441043635954,-0.016880207078,0.00316313496934,0.0121550217368,0.00463830658475,0.05,0.0,0.0,0.0,0.0,0.0,0.0,0.05,0.0,0.0,0.0,0.0,0.0,0.0,0.05,0.0,0.0,0.0,0.0,0.0,0.0,0.09,0.0,0.0,0.0,0.0,0.0,0.0,0.09,0.0,0.0,0.0,0.0,0.0,0.0,0.09
1336386235907196045,47,1336386235907196045,/odom,/base_link,-0.0258585463549,-0.0403543174687,0.0361018120239,-0.00355677274249,0.000939321294056,-0.00508589470808,0.999980300165,0.1,0.0,0.0,0.0,0.0,0.0,0.0,0.1,0.0,0.0,0.0,0.0,0.0,0.0,0.1,0.0,0.0,0.0,0.0,0.0,0.0,0.17,0.0,0.0,0.0,0.0,0.0,0.0,0.17,0.0,0.0,0.0,0.0,0.0,0.0,0.17,0.00842212512737,-0.036051209837,0.018664340355,-0.026857729701,0.00278959704615,0.00285699913467,0.05,0.0,0.0,0.0,0.0,0.0,0.0,0.05,0.0,0.0,0.0,0.0,0.0,0.0,0.05,0.0,0.0,0.0,0.0,0.0,0.0,0.09,0.0,0.0,0.0,0.0,0.0,0.0,0.09,0.0,0.0,0.0,0.0,0.0,0.0,0.09
1336386236006433010,48,1336386236006433010,/odom,/base_link,-0.0244502966841,-0.0375256547301,0.0353772801724,-0.00368336233583,0.000846238165376,-0.00469646125792,0.999981829822,0.1,0.0,0.0,0.0,0.0,0.0,0.0,0.1,0.0,0.0,0.0,0.0,0.0,0.0,0.1,0.0,0.0,0.0,0.0,0.0,0.0,0.17,0.0,0.0,0.0,0.0,0.0,0.0,0.17,0.0,0.0,0.0,0.0,0.0,0.0,0.17,0.0139133470526,0.0286981809058,-0.00707116898469,-0.0025489303256,-0.00191685995669,0.00783948976374,0.05,0.0,0.0,0.0,0.0,0.0,0.0,0.05,0.0,0.0,0.0,0.0,0.0,0.0,0.05,0.0,0.0,0.0,0.0,0.0,0.0,0.09,0.0,0.0,0.0,0.0,0.0,0.0,0.09,0.0,0.0,0.0,0.0,0.0,0.0,0.09
1336386236105669975,49,1336386236105669975,/odom,/base_link,-0.0266074881616,-0.0352468796887,0.0365892405895,-0.0039672438888,0.00116796969287,-0.00440061279765,0.999981765549,0.1,0.0,0.0,0.0,0.0,0.0,0.0,0.1,0.0,0.0,0.0,0.0,0.0,0.0,0.1,0.0,0.0,0.0,0.0,0.0,0.0,0.17,0.0,0.0,0.0,0.0,0.0,0.0,0.17,0.0,0.0,0.0,0.0,0.0,0.0,0.17,-0.0219728671394,0.0226672240271,0.012343877334,-0.00575668557324,0.00643515840344,0.00598139249046,0.05,0.0,0.0,0.0,0.0,0.0,0.0,0.05,0.0,0.0,0.0,0.0,0.0,0.0,0.05,0.0,0.0,0.0,0.0,0.0,0.0,0.09,0.0,0.0,0.0,0.0,0.0,0.0,0.09,0.0,0.0,0.0,0.0,0.0,0.0,0.09
1336386236204906940,50,1336386236204906940,/odom,/base_link,-0.0252952399948,-0.0390578839294,0.0343978540068,-0.00488694959297,0.000503184513584,-0.00417900081271,0.999979200024,0.1,0.0,0.0,0.0,0.0,0.0,0.0,0.1,0.0,0.0,0.0,0.0,0.0,0.0,0.1,0.0,0.0,0.0,0.0,0.0,0.0,0.17,0.0,0.0,0.0,0.0,0.0,0.0,0.17,0.0,0.0,0.0,0.0,0.0,0.0,0.17,0.0136119873599,-0.0381086817234,-0.0223545648286,-0.0184816754554,-0.0134969195714,0.00439120945112,0.05,0.0,0.0,0.0,0.0,0.0,0.0,0.05,0.0,0.0,0.0,0.0,0.0,0.0,0.05,0.0,0.0,0.0,0.0,0.0,0.0,0.09,0.0,0.0,0.0,0.0,0.0,0.0,0.09,0.0,0.0,0.0,0.0,0.0,0.0,0.09
1336386236304144859,51,1336386236304144859,/odom,/base_link,-0.0274062816379,-0.0377087509874,0.0363122487371,-0.00519670177231,0.000295034643119,-0.00377154434707,0.999979341136,0.1,0.0,0.0,0.0,0.0,0.0,0.0,0.1,0.0,0.0,0.0,0.0,0.0,0.0,0.1,0.0,0.0,0.0,0.0,0.0,0.0,0.17,0.0,0.0,0.0,0.0,0.0,0.0,0.17,0.0,0.0,0.0,0.0,0.0,0.0,0.17,-0.0214040930168,0.0132274969947,0.0194005679755,-0.00622907519732,-0.00426109895633,0.00818790890845,0.05,0.0,0.0,0.0,0.0,0.0,0.0,0.05,0.0,0.0,0.0,0.0,0.0,0.0,0.05,0.0,0.0,0.0,0.0,0.0,0.0,0.09,0.0,0.0,0.0,0.0,0.0,0.0,0.09,0.0,0.0,0.0,0.0,0.0,0.0,0.09
1336386236403380871,52,1336386236403380871,/odom,/base_link,-0.0295244583715,-0.0416030660605,0.0384642380185,-0.00613486435057,-0.000144791054499,-0.00342617676998,0.999975301589,0.1,0.0,0.0,0.0,0.0,0.0,0.0,0.1,0.0,0.0,0.0,0.0,0.0,0.0,0.1,0.0,0.0,0.0,0.0,0.0,0.0,0.17,0.0,0.0,0.0,0.0,0.0,0.0,0.17,0.0,0.0,0.0,0.0,0.0,0.0,0.17,-0.0210600466918,-0.0396260939597,0.0212631893497,-0.018876362115,-0.00897151332677,0.0069084364568,0.05,0.0,0.0,0.0,0.0,0.0,0.0,0.05,0.0,0.0,0.0,0.0,0.0,0.0,0.05,0.0,0.0,0.0,0.0,0.0,0.0,0.09,0.0,0.0,0.0,0.0,0.0,0.0,0.09,0.0,0.0,0.0,0.0,0.0,0.0,0.09
1336386236502617836,53,1336386236502617836,/odom,/base_link,-0.0280150674478,-0.0367180755088,0.0362551949938,-0.00545267048074,-0.00129082402595,-0.00314938772771,0.999979341544,0.1,0.0,0.0,0.0,0.0,0.0,0.0,0.1,0.0,0.0,0.0,0.0,0.0,0.0,0.1,0.0,0.0,0.0,0.0,0.0,0.0,0.17,0.0,0.0,0.0,0.0,0.0,0.0,0.17,0.0,0.0,0.0,0.0,0.0,0.0,0.17,0.0148650122343,0.0495979996987,-0.0216583548787,0.0138288913937,-0.0230834383525,0.00543480140923,0.05,0.0,0.0,0.0,0.0,0.0,0.0,0.05,0.0,0.0,0.0,0.0,0.0,0.0,0.05,0.0,0.0,0.0,0.0,0.0,0.0,0.09,0.0,0.0,0.0,0.0,0.0,0.0,0.09,0.0,0.0,0.0,0.0,0.0,0.0,0.09
1336386236601855040,54,1336386236601855040,/odom,/base_link,-0.0313074311248,-0.0358189327848,0.0363719977183,-0.00552442288553,-0.0017693320972,-0.00344894888661,0.999977227224,0.1,0.0,0.0,0.0,0.0,0.0,0.0,0.1,0.0,0.0,0.0,0.0,0.0,0.0,0.1,0.0,0.0,0.0,0.0,0.0,0.0,0.17,0.0,0.0,0.0,0.0,0.0,0.0,0.17,0.0,0.0,0.0,0.0,0.0,0.0,0.17,-0.0332298012835,0.00883756102879,0.00136032074976,-0.00142370251169,-0.00961521464925,-0.00608800249224,0.05,0.0,0.0,0.0,0.0,0.0,0.0,0.05,0.0,0.0,0.0,0.0,0.0,0.0,0.05,0.0,0.0,0.0,0.0,0.0,0.0,0.09,0.0,0.0,0.0,0.0,0.0,0.0,0.09,0.0,0.0,0.0,0.0,0.0,0.0,0.09
1336386236701091051,55,1336386236701091051,/odom,/base_link,-0.032060697798,-0.0390388678574,0.0375296154915,-0.00602942665372,-0.00301995351351,-0.00397097261748,0.999969378167,0.1,0.0,0.0,0.0,0.0,0.0,0.0,0.1,0.0,0.0,0.0,0.0,0.0,0.0,0.1,0.0,0.0,0.0,0.0,0.0,0.0,0.17,0.0,0.0,0.0,0.0,0.0,0.0,0.17,0.0,0.0,0.0,0.0,0.0,0.0,0.17,-0.00732552888919,-0.0326257412065,0.0113321927507,-0.0101101626958,-0.025181687557,-0.0106423975513,0.05,0.0,0.0,0.0,0.0,0.0,0.0,0.05,0.0,0.0,0.0,0.0,0.0,0.0,0.05,0.0,0.0,0.0,0.0,0.0,0.0,0.09,0.0,0.0,0.0,0.0,0.0,0.0,0.09,0.0,0.0,0.0,0.0,0.0,0.0,0.09
1336386236800328016,56,1336386236800328016,/odom,/base_link,-0.0359958317465,-0.0384522223275,0.0375013711017,-0.00586379153707,-0.0036830921405,-0.00454371847661,0.999965702114,0.1,0.0,0.0,0.0,0.0,0.0,0.0,0.1,0.0,0.0,0.0,0.0,0.0,0.0,0.1,0.0,0.0,0.0,0.0,0.0,0.0,0.17,0.0,0.0,0.0,0.0,0.0,0.0,0.17,0.0,0.0,0.0,0.0,0.0,0.0,0.17,-0.0397004040605,0.0055980079022,2.44363075647e-05,0.00335583704379,-0.0132817130725,-0.0116335994492,0.05,0.0,0.0,0.0,0.0,0.0,0.0,0.05,0.0,0.0,0.0,0.0,0.0,0.0,0.05,0.0,0.0,0.0,0.0,0.0,0.0,0.09,0.0,0.0,0.0,0.0,0.0,0.0,0.09,0.0,0.0,0.0,0.0,0.0,0.0,0.09
1336386236899564981,57,1336386236899564981,/odom,/base_link,-0.0357219404119,-0.0466707402205,0.0388334419617,-0.00695689769352,-0.00517621208608,-0.00541519453035,0.99994774067,0.1,0.0,0.0,0.0,0.0,0.0,0.0,0.1,0.0,0.0,0.0,0.0,0.0,0.0,0.1,0.0,0.0,0.0,0.0,0.0,0.0,0.17,0.0,0.0,0.0,0.0,0.0,0.0,0.17,0.0,0.0,0.0,0.0,0.0,0.0,0.17,0.00360836541391,-0.0829397544427,0.0124276788206,-0.0219595622886,-0.0300894438323,-0.0176599056641,0.05,0.0,0.0,0.0,0.0,0.0,0.0,0.05,0.0,0.0,0.0,0.0,0.0,0.0,0.05,0.0,0.0,0.0,0.0,0.0,0.0,0.09,0.0,0.0,0.0,0.0,0.0,0.0,0.09,0.0,0.0,0.0,0.0,0.0,0.0,0.09
1336386236998802900,58,1336386236998802900,/odom,/base_link,-0.0387175005828,-0.0436772858265,0.0384111239102,-0.00621855173553,-0.00594187753126,-0.00624484676002,0.999943511202,0.1,0.0,0.0,0.0,0.0,0.0,0.0,0.1,0.0,0.0,0.0,0.0,0.0,0.0,0.1,0.0,0.0,0.0,0.0,0.0,0.0,0.17,0.0,0.0,0.0,0.0,0.0,0.0,0.17,0.0,0.0,0.0,0.0,0.0,0.0,0.17,-0.0305511299754,0.0298896232439,-0.00352339720834,0.0148759657858,-0.0152336419152,-0.0169044359312,0.05,0.0,0.0,0.0,0.0,0.0,0.0,0.05,0.0,0.0,0.0,0.0,0.0,0.0,0.05,0.0,0.0,0.0,0.0,0.0,0.0,0.09,0.0,0.0,0.0,0.0,0.0,0.0,0.09,0.0,0.0,0.0,0.0,0.0,0.0,0.09
1336386237098038912,59,1336386237098038912,/odom,/base_link,-0.0412472499587,-0.0405134261137,0.0373807644376,-0.00523855655834,-0.00678600794828,-0.00682908408144,0.999939933812,0.1,0.0,0.0,0.0,0.0,0.0,0.0,0.1,0.0,0.0,0.0,0.0,0.0,0.0,0.1,0.0,0.0,0.0,0.0,0.0,0.0,0.17,0.0,0.0,0.0,0.0,0.0,0.0,0.17,0.0,0.0,0.0,0.0,0.0,0.0,0.17,-0.0260084706554,0.0316853199329,-0.00968157063487,0.0197855169818,-0.0168154931477,-0.0119976433282,0.05,0.0,0.0,0.0,0.0,0.0,0.0,0.05,0.0,0.0,0.0,0.0,0.0,0.0,0.05,0.0,0.0,0.0,0.0,0.0,0.0,0.09,0.0,0.0,0.0,0.0,0.0,0.0,0.09,0.0,0.0,0.0,0.0,0.0,0.0,0.09
1336386237197275877,60,1336386237197275877,/odom,/base_link,-0.0417487134716,-0.0457122275676,0.0389923629894,-0.00583127472999,-0.00797345478706,-0.00751156977433,0.999922995322,0.1,0.0,0.0,0.0,0.0,0.0,0.0,0.1,0.0,0.0,0.0,0.0,0.0,0.0,0.1,0.0,0.0,0.0,0.0,0.0,0.0,0.17,0.0,0.0,0.0,0.0,0.0,0.0,0.17,0.0,0.0,0.0,0.0,0.0,0.0,0.17,-0.00411894603227,-0.0526179941297,0.0157520360176,-0.0118764958273,-0.0239419531109,-0.0138004813903,0.05,0.0,0.0,0.0,0.0,0.0,0.0,0.05,0.0,0.0,0.0,0.0,0.0,0.0,0.05,0.0,0.0,0.0,0.0,0.0,0.0,0.09,0.0,0.0,0.0,0.0,0.0,0.0,0.09,0.0,0.0,0.0,0.0,0.0,0.0,0.09
1336386237296514034,61,1336386237296514034,/odom,/base_link,-0.0479887513966,-0.047399157081,0.0392804993323,-0.00566709084784,-0.00811966879994,-0.00839807541405,0.999915710142,0.1,0.0,0.0,0.0,0.0,0.0,0.0,0.1,0.0,0.0,0.0,0.0,0.0,0.0,0.1,0.0,0.0,0.0,0.0,0.0,0.0,0.17,0.0,0.0,0.0,0.0,0.0,0.0,0.17,0.0,0.0,0.0,0.0,0.0,0.0,0.17,-0.0625640033884,-0.0179796573875,0.00369979322166,0.00318745466934,-0.00281863607332,-0.0179095213984,0.05,0.0,0.0,0.0,0.0,0.0,0.0,0.05,0.0,0.0,0.0,0.0,0.0,0.0,0.05,0.0,0.0,0.0,0.0,0.0,0.0,0.09,0.0,0.0,0.0,0.0,0.0,0.0,0.09,0.0,0.0,0.0,0.0,0.0,0.0,0.09
1336386237395750046,62,1336386237395750046,/odom,/base_link,-0.0480142912147,-0.0518141291132,0.0400213019682,-0.00589002173965,-0.00909111504312,-0.00901239009574,0.999900713119,0.1,0.0,0.0,0.0,0.0,0.0,0.0,0.1,0.0,0.0,0.0,0.0,0.0,0.0,0.1,0.0,0.0,0.0,0.0,0.0,0.0,0.17,0.0,0.0,0.0,0.0,0.0,0.0,0.17,0.0,0.0,0.0,0.0,0.0,0.0,0.17,0.00060773071286,-0.0445684136702,0.00695747092414,-0.00443038548679,-0.0195468791298,-0.0124568516048,0.05,0.0,0.0,0.0,0.0,0.0,0.0,0.05,0.0,0.0,0.0,0.0,0.0,0.0,0.05,0.0,0.0,0.0,0.0,0.0,0.0,0.09,0.0,0.0,0.0,0.0,0.0,0.0,0.09,0.0,0.0,0.0,0.0,0.0,0.0,0.09
1336386237494987011,63,1336386237494987011,/odom,/base_link,-0.0503520363145,-0.0524532364446,0.0398665318991,-0.00558579586314,-0.00963013846404,-0.00967285691913,0.999891241664,0.1,0.0,0.0,0.0,0.0,0.0,0.0,0.1,0.0,0.0,0.0,0.0,0.0,0.0,0.1,0.0,0.0,0.0,0.0,0.0,0.0,0.17,0.0,0.0,0.0,0.0,0.0,0.0,0.17,0.0,0.0,0.0,0.0,0.0,0.0,0.17,-0.0234626175433,-0.00684770061762,-0.00121036985002,0.00610646314384,-0.0107303587033,-0.0134310296828,0.05,0.0,0.0,0.0,0.0,0.0,0.0,0.05,0.0,0.0,0.0,0.0,0.0,0.0,0.05,0.0,0.0,0.0,0.0,0.0,0.0,0.09,0.0,0.0,0.0,0.0,0.0,0.0,0.09,0.0,0.0,0.0,0.0,0.0,0.0,0.09
1336386237594225883,64,1336386237594225883,/odom,/base_link,-0.0496214202245,-0.0544832144065,0.0398278994521,-0.00545297892782,-0.0104236366714,-0.0100806435426,0.999879989521,0.1,0.0,0.0,0.0,0.0,0.0,0.0,0.1,0.0,0.0,0.0,0.0,0.0,0.0,0.1,0.0,0.0,0.0,0.0,0.0,0.0,0.17,0.0,0.0,0.0,0.0,0.0,0.0,0.17,0.0,0.0,0.0,0.0,0.0,0.0,0.17,0.00774539638268,-0.0203028882028,-0.000762484125256,0.00275069651507,-0.0159203309489,-0.00833468833115,0.05,0.0,0.0,0.0,0.0,0.0,0.0,0.05,0.0,0.0,0.0,0.0,0.0,0.0,0.05,0.0,0.0,0.0,0.0,0.0,0.0,0.09,0.0,0.0,0.0,0.0,0.0,0.0,0.09,0.0,0.0,0.0,0.0,0.0,0.0,0.09
1336386237693460941,65,1336386237693460941,/odom,/base_link,-0.0574113449077,-0.0518383712218,0.0419895840932,-0.00448683692622,-0.0096260482653,-0.010575501026,0.999887676825,0.1,0.0,0.0,0.0,0.0,0.0,0.0,0.1,0.0,0.0,0.0,0.0,0.0,0.0,0.1,0.0,0.0,0.0,0.0,0.0,0.0,0.17,0.0,0.0,0.0,0.0,0.0,0.0,0.17,0.0,0.0,0.0,0.0,0.0,0.0,0.17,-0.0785444956976,0.0248209520796,0.0237013620284,0.0192042985914,0.0163250943499,-0.0100859967067,0.05,0.0,0.0,0.0,0.0,0.0,0.0,0.05,0.0,0.0,0.0,0.0,0.0,0.0,0.05,0.0,0.0,0.0,0.0,0.0,0.0,0.09,0.0,0.0,0.0,0.0,0.0,0.0,0.09,0.0,0.0,0.0,0.0,0.0,0.0,0.09
1336386237792697906,66,1336386237792697906,/odom,/base_link,-0.0609827000625,-0.0552201748664,0.0419430693081,-0.00449592188879,-0.0092014411866,-0.0108814828432,0.999888350516,0.1,0.0,0.0,0.0,0.0,0.0,0.0,0.1,0.0,0.0,0.0,0.0,0.0,0.0,0.1,0.0,0.0,0.0,0.0,0.0,0.0,0.17,0.0,0.0,0.0,0.0,0.0,0.0,0.17,0.0,0.0,0.0,0.0,0.0,0.0,0.17,-0.0352647413091,-0.034829167671,-9.19737685518e-05,-0.000332874921593,0.00858234030809,-0.0061256960581,0.05,0.0,0.0,0.0,0.0,0.0,0.0,0.05,0.0,0.0,0.0,0.0,0.0,0.0,0.05,0.0,0.0,0.0,0.0,0.0,0.0,0.09,0.0,0.0,0.0,0.0,0.0,0.0,0.09,0.0,0.0,0.0,0.0,0.0,0.0,0.09
1336386237891935825,67,1336386237891935825,/odom,/base_link,-0.0559217046474,-0.0578799375038,0.0429896676346,-0.00472843600051,-0.0101389422254,-0.0109066460731,0.999877936958,0.1,0.0,0.0,0.0,0.0,0.0,0.0,0.1,0.0,0.0,0.0,0.0,0.0,0.0,0.1,0.0,0.0,0.0,0.0,0.0,0.0,0.17,0.0,0.0,0.0,0.0,0.0,0.0,0.17,0.0,0.0,0.0,0.0,0.0,0.0,0.17,0.0517539911998,-0.0257731800319,0.00936437774013,-0.00448548586194,-0.0189425435193,-0.000551184595843,0.05,0.0,0.0,0.0,0.0,0.0,0.0,0.05,0.0,0.0,0.0,0.0,0.0,0.0,0.05,0.0,0.0,0.0,0.0,0.0,0.0,0.09,0.0,0.0,0.0,0.0,0.0,0.0,0.09,0.0,0.0,0.0,0.0,0.0,0.0,0.09
1336386237991171837,68,1336386237991171837,/odom,/base_link,-0.0582437341095,-0.0564205490773,0.0424050189421,-0.00410987257047,-0.00952390052087,-0.0108054025007,0.999887817479,0.1,0.0,0.0,0.0,0.0,0.0,0.0,0.1,0.0,0.0,0.0,0.0,0.0,0.0,0.1,0.0,0.0,0.0,0.0,0.0,0.0,0.17,0.0,0.0,0.0,0.0,0.0,0.0,0.17,0.0,0.0,0.0,0.0,0.0,0.0,0.17,-0.0238280854316,0.0142438953352,-0.0052756999317,0.0123514271213,0.012522361685,0.00197459762395,0.05,0.0,0.0,0.0,0.0,0.0,0.0,0.05,0.0,0.0,0.0,0.0,0.0,0.0,0.05,0.0,0.0,0.0,0.0,0.0,0.0,0.09,0.0,0.0,0.0,0.0,0.0,0.0,0.09,0.0,0.0,0.0,0.0,0.0,0.0,0.09
1336386238090409040,69,1336386238090409040,/odom,/base_link,-0.0582641998097,-0.0544265917892,0.0407513189716,-0.00359087118171,-0.00902213754304,-0.0110057114162,0.999892284696,0.1,0.0,0.0,0.0,0.0,0.0,0.0,0.1,0.0,0.0,0.0,0.0,0.0,0.0,0.1,0.0,0.0,0.0,0.0,0.0,0.0,0.17,0.0,0.0,0.0,0.0,0.0,0.0,0.17,0.0,0.0,0.0,0.0,0.0,0.0,0.17,-0.000957604514923,0.0202165268973,-0.0164873426208,0.0103112962644,0.010241734537,-0.00409360447205,0.05,0.0,0.0,0.0,0.0,0.0,0.0,0.05,0.0,0.0,0.0,0.0,0.0,0.0,0.05,0.0,0.0,0.0,0.0,0.0,0.0,0.09,0.0,0.0,0.0,0.0,0.0,0.0,0.09,0.0,0.0,0.0,0.0,0.0,0.0,0.09
1336386238189646006,70,1336386238189646006,/odom,/base_link,-0.0549686694228,-0.0551615992781,0.0417130740745,-0.00362981625554,-0.00878517705994,-0.0107747444793,0.999896769661,0.1,0.0,0.0,0.0,0.0,0.0,0.0,0.1,0.0,0.0,0.0,0.0,0.0,0.0,0.1,0.0,0.0,0.0,0.0,0.0,0.0,0.17,0.0,0.0,0.0,0.0,0.0,0.0,0.17,0.0,0.0,0.0,0.0,0.0,0.0,0.17,0.0335334017529,-0.00673923045823,0.00903847791528,-0.000795044013574,0.00475059740215,0.00467958049312,0.05,0.0,0.0,0.0,0.0,0.0,0.0,0.05,0.0,0.0,0.0,0.0,0.0,0.0,0.05,0.0,0.0,0.0,0.0,0.0,0.0,0.09,0.0,0.0,0.0,0.0,0.0,0.0,0.09,0.0,0.0,0.0,0.0,0.0,0.0,0.09
1336386238388118982,71,1336386238388118982,/odom,/base_link,-0.0528690976201,-0.0559151273533,0.0414407097738,-0.00365411106705,-0.00731211635799,-0.0117473334642,0.999897585047,0.1,0.0,0.0,0.0,0.0,0.0,0.0,0.1,0.0,0.0,0.0,0.0,0.0,0.0,0.1,0.0,0.0,0.0,0.0,0.0,0.0,0.17,0.0,0.0,0.0,0.0,0.0,0.0,0.17,0.0,0.0,0.0,0.0,0.0,0.0,0.17,0.0106318871268,-0.00355732976855,-0.001585352814,-0.00049080322399,0.0148754268325,-0.00974359276965,0.05,0.0,0.0,0.0,0.0,0.0,0.0,0.05,0.0,0.0,0.0,0.0,0.0,0.0,0.05,0.0,0.0,0.0,0.0,0.0,0.0,0.09,0.0,0.0,0.0,0.0,0.0,0.0,0.09,0.0,0.0,0.0,0.0,0.0,0.0,0.09
1336386238487355947,72,1336386238487355947,/odom,/base_link,-0.052263157496,-0.0575970968975,0.0417809280858,-0.00398453295549,-0.00630827694386,-0.0122519538154,0.99989710409,0.1,0.0,0.0,0.0,0.0,0.0,0.0,0.1,0.0,0.0,0.0,0.0,0.0,0.0,0.1,0.0,0.0,0.0,0.0,0.0,0.0,0.17,0.0,0.0,0.0,0.0,0.0,0.0,0.17,0.0,0.0,0.0,0.0,0.0,0.0,0.17,0.00655134510465,-0.016824585561,0.00321235601703,-0.00697063163727,0.0201879547775,-0.0100464622309,0.05,0.0,0.0,0.0,0.0,0.0,0.0,0.05,0.0,0.0,0.0,0.0,0.0,0.0,0.05,0.0,0.0,0.0,0.0,0.0,0.0,0.09,0.0,0.0,0.0,0.0,0.0,0.0,0.09,0.0,0.0,0.0,0.0,0.0,0.0,0.09
1336386238586592913,73,1336386238586592913,/odom,/base_link,-0.0496294301801,-0.0582502422906,0.0398798108424,-0.00437281853103,-0.00552962210264,-0.0129347802235,0.999891490712,0.1,0.0,0.0,0.0,0.0,0.0,0.0,0.1,0.0,0.0,0.0,0.0,0.0,0.0,0.1,0.0,0.0,0.0,0.0,0.0,0.0,0.17,0.0,0.0,0.0,0.0,0.0,0.0,0.17,0.0,0.0,0.0,0.0,0.0,0.0,0.17,0.0264470846062,-0.00577820461997,-0.019540893156,-0.00810414886027,0.0156494698918,-0.0136496126294,0.05,0.0,0.0,0.0,0.0,0.0,0.0,0.05,0.0,0.0,0.0,0.0,0.0,0.0,0.05,0.0,0.0,0.0,0.0,0.0,0.0,0.09,0.0,0.0,0.0,0.0,0.0,0.0,0.09,0.0,0.0,0.0,0.0,0.0,0.0,0.09
1336386238685829878,74,1336386238685829878,/odom,/base_link,-0.0502876236433,-0.0526402806351,0.0391344716888,-0.0035701317204,-0.00424819580754,-0.0134732400633,0.999893833761,0.1,0.0,0.0,0.0,0.0,0.0,0.0,0.1,0.0,0.0,0.0,0.0,0.0,0.0,0.1,0.0,0.0,0.0,0.0,0.0,0.0,0.17,0.0,0.0,0.0,0.0,0.0,0.0,0.17,0.0,0.0,0.0,0.0,0.0,0.0,0.17,-0.00817336034219,0.0564026107052,-0.0069349292389,0.0157815758812,0.0260797561657,-0.0108267407379,0.05,0.0,0.0,0.0,0.0,0.0,0.0,0.05,0.0,0.0,0.0,0.0,0.0,0.0,0.05,0.0,0.0,0.0,0.0,0.0,0.0,0.09,0.0,0.0,0.0,0.0,0.0,0.0,0.09,0.0,0.0,0.0,0.0,0.0,0.0,0.09
1336386238785066843,75,1336386238785066843,/odom,/base_link,-0.0482647091652,-0.0492126377981,0.0369348348273,-0.00329099038445,-0.00336884717114,-0.0140285569256,0.999890503926,0.1,0.0,0.0,0.0,0.0,0.0,0.0,0.1,0.0,0.0,0.0,0.0,0.0,0.0,0.1,0.0,0.0,0.0,0.0,0.0,0.0,0.17,0.0,0.0,0.0,0.0,0.0,0.0,0.17,0.0,0.0,0.0,0.0,0.0,0.0,0.17,0.019256526995,0.035232128978,-0.0220847985822,0.00533859724084,0.0178357892563,-0.0111520809521,0.05,0.0,0.0,0.0,0.0,0.0,0.0,0.05,0.0,0.0,0.0,0.0,0.0,0.0,0.05,0.0,0.0,0.0,0.0,0.0,0.0,0.09,0.0,0.0,0.0,0.0,0.0,0.0,0.09,0.0,0.0,0.0,0.0,0.0,0.0,0.09
1336386238884304047,76,1336386238884304047,/odom,/base_link,-0.0494028637866,-0.0542043062979,0.0380757302545,-0.00444065192998,-0.00205153143901,-0.0149129521969,0.999876830258,0.1,0.0,0.0,0.0,0.0,0.0,0.0,0.1,0.0,0.0,0.0,0.0,0.0,0.0,0.1,0.0,0.0,0.0,0.0,0.0,0.0,0.17,0.0,0.0,0.0,0.0,0.0,0.0,0.17,0.0,0.0,0.0,0.0,0.0,0.0,0.17,-0.00997572954368,-0.0506760691833,0.0112365533993,-0.0236008431394,0.0262786264109,-0.0176603627136,0.05,0.0,0.0,0.0,0.0,0.0,0.0,0.05,0.0,0.0,0.0,0.0,0.0,0.0,0.05,0.0,0.0,0.0,0.0,0.0,0.0,0.09,0.0,0.0,0.0,0.0,0.0,0.0,0.09,0.0,0.0,0.0,0.0,0.0,0.0,0.09
1336386238983541012,77,1336386238983541012,/odom,/base_link,-0.0499922337363,-0.0527962142659,0.0375339416271,-0.00472211644533,-0.000880905844322,-0.0157395457288,0.999864586992,0.1,0.0,0.0,0.0,0.0,0.0,0.0,0.1,0.0,0.0,0.0,0.0,0.0,0.0,0.1,0.0,0.0,0.0,0.0,0.0,0.0,0.17,0.0,0.0,0.0,0.0,0.0,0.0,0.17,0.0,0.0,0.0,0.0,0.0,0.0,0.17,-0.00638234057325,0.0140532428651,-0.00530883348681,-0.00605898393918,0.023578509375,-0.0165442145778,0.05,0.0,0.0,0.0,0.0,0.0,0.0,0.05,0.0,0.0,0.0,0.0,0.0,0.0,0.05,0.0,0.0,0.0,0.0,0.0,0.0,0.09,0.0,0.0,0.0,0.0,0.0,0.0,0.09,0.0,0.0,0.0,0.0,0.0,0.0,0.09
1336386239082777977,78,1336386239082777977,/odom,/base_link,-0.0494580933883,-0.0518586754235,0.0350031497445,-0.00493727287734,-1.388476215e-05,-0.0167140996496,0.999848119474,0.1,0.0,0.0,0.0,0.0,0.0,0.0,0.1,0.0,0.0,0.0,0.0,0.0,0.0,0.1,0.0,0.0,0.0,0.0,0.0,0.0,0.17,0.0,0.0,0.0,0.0,0.0,0.0,0.17,0.0,0.0,0.0,0.0,0.0,0.0,0.17,0.00503380392274,0.00985194281205,-0.0254205424746,-0.00462952758998,0.0174955958281,-0.0195571825559,0.05,0.0,0.0,0.0,0.0,0.0,0.0,0.05,0.0,0.0,0.0,0.0,0.0,0.0,0.05,0.0,0.0,0.0,0.0,0.0,0.0,0.09,0.0,0.0,0.0,0.0,0.0,0.0,0.09,0.0,0.0,0.0,0.0,0.0,0.0,0.09
1336386239182014942,79,1336386239182014942,/odom,/base_link,-0.0503593555717,-0.0544410882983,0.0361905661516,-0.00574119275176,0.00077935935358,-0.0175243921809,0.999829648982,0.1,0.0,0.0,0.0,0.0,0.0,0.0,0.1,0.0,0.0,0.0,0.0,0.0,0.0,0.1,0.0,0.0,0.0,0.0,0.0,0.0,0.17,0.0,0.0,0.0,0.0,0.0,0.0,0.17,0.0,0.0,0.0,0.0,0.0,0.0,0.17,-0.0082047827201,-0.026428560239,0.0117066993351,-0.0164688398847,0.0157942652073,-0.0162550480297,0.05,0.0,0.0,0.0,0.0,0.0,0.0,0.05,0.0,0.0,0.0,0.0,0.0,0.0,0.05,0.0,0.0,0.0,0.0,0.0,0.0,0.09,0.0,0.0,0.0,0.0,0.0,0.0,0.09,0.0,0.0,0.0,0.0,0.0,0.0,0.09
1336386239281251907,80,1336386239281251907,/odom,/base_link,-0.049176992286,-0.0524096299195,0.0351027319924,-0.00579920553573,0.00110408480441,-0.0187441294857,0.999806885264,0.1,0.0,0.0,0.0,0.0,0.0,0.0,0.1,0.0,0.0,0.0,0.0,0.0,0.0,0.1,0.0,0.0,0.0,0.0,0.0,0.0,0.17,0.0,0.0,0.0,0.0,0.0,0.0,0.17,0.0,0.0,0.0,0.0,0.0,0.0,0.17,0.011204553437,0.0210004205014,-0.010705829482,-0.00126714095971,0.00666433260749,-0.0245495147359,0.05,0.0,0.0,0.0,0.0,0.0,0.0,0.05,0.0,0.0,0.0,0.0,0.0,0.0,0.05,0.0,0.0,0.0,0.0,0.0,0.0,0.09,0.0,0.0,0.0,0.0,0.0,0.0,0.09,0.0,0.0,0.0,0.0,0.0,0.0,0.09
1336386239380488873,81,1336386239380488873,/odom,/base_link,-0.0479103002753,-0.0489791680089,0.0337352014369,-0.0056209251349,0.00110626122162,-0.0200439688102,0.999782686738,0.1,0.0,0.0,0.0,0.0,0.0,0.0,0.1,0.0,0.0,0.0,0.0,0.0,0.0,0.1,0.0,0.0,0.0,0.0,0.0,0.0,0.17,0.0,0.0,0.0,0.0,0.0,0.0,0.17,0.0,0.0,0.0,0.0,0.0,0.0,0.17,0.0114866424947,0.0351803988746,-0.0133491091501,0.00361760413659,0.0002636611081,-0.026196544573,0.05,0.0,0.0,0.0,0.0,0.0,0.0,0.05,0.0,0.0,0.0,0.0,0.0,0.0,0.05,0.0,0.0,0.0,0.0,0.0,0.0,0.09,0.0,0.0,0.0,0.0,0.0,0.0,0.09,0.0,0.0,0.0,0.0,0.0,0.0,0.09
1336386239479724884,82,1336386239479724884,/odom,/base_link,-0.0506620519243,-0.048424486231,0.0337620617756,-0.00581094828709,0.001508283663,-0.0212094174695,0.999757029768,0.1,0.0,0.0,0.0,0.0,0.0,0.0,0.1,0.0,0.0,0.0,0.0,0.0,0.0,0.1,0.0,0.0,0.0,0.0,0.0,0.0,0.17,0.0,0.0,0.0,0.0,0.0,0.0,0.17,0.0,0.0,0.0,0.0,0.0,0.0,0.17,-0.0279316477238,0.0044705957536,0.000265641735794,-0.00396821591821,0.00815642713442,-0.0234523823911,0.05,0.0,0.0,0.0,0.0,0.0,0.0,0.05,0.0,0.0,0.0,0.0,0.0,0.0,0.05,0.0,0.0,0.0,0.0,0.0,0.0,0.09,0.0,0.0,0.0,0.0,0.0,0.0,0.09,0.0,0.0,0.0,0.0,0.0,0.0,0.09
1336386239578961849,83,1336386239578961849,/odom,/base_link,-0.0477985253121,-0.04617438829,0.0316995643084,-0.00584113940563,0.000813173869591,-0.0221011553416,0.999738345154,0.1,0.0,0.0,0.0,0.0,0.0,0.0,0.1,0.0,0.0,0.0,0.0,0.0,0.0,0.1,0.0,0.0,0.0,0.0,0.0,0.0,0.17,0.0,0.0,0.0,0.0,0.0,0.0,0.17,0.0,0.0,0.0,0.0,0.0,0.0,0.17,0.0279249400966,0.024118085813,-0.0204259263616,-0.000286274250554,-0.0139135928095,-0.0180578370368,0.05,0.0,0.0,0.0,0.0,0.0,0.0,0.05,0.0,0.0,0.0,0.0,0.0,0.0,0.05,0.0,0.0,0.0,0.0,0.0,0.0,0.09,0.0,0.0,0.0,0.0,0.0,0.0,0.09,0.0,0.0,0.0,0.0,0.0,0.0,0.09
1336386239678200006,84,1336386239678200006,/odom,/base_link,-0.0505264660183,-0.0533629478574,0.033253728039,-0.00737141783124,0.00070984858003,-0.0232706579978,0.999701772926,0.1,0.0,0.0,0.0,0.0,0.0,0.0,0.1,0.0,0.0,0.0,0.0,0.0,0.0,0.1,0.0,0.0,0.0,0.0,0.0,0.0,0.17,0.0,0.0,0.0,0.0,0.0,0.0,0.17,0.0,0.0,0.0,0.0,0.0,0.0,0.17,-0.0242816046865,-0.0737597079371,0.0147646582568,-0.0307715906913,-0.00262516540608,-0.02361699614,0.05,0.0,0.0,0.0,0.0,0.0,0.0,0.05,0.0,0.0,0.0,0.0,0.0,0.0,0.05,0.0,0.0,0.0,0.0,0.0,0.0,0.09,0.0,0.0,0.0,0.0,0.0,0.0,0.09,0.0,0.0,0.0,0.0,0.0,0.0,0.09
1336386239777436018,85,1336386239777436018,/odom,/base_link,-0.0470015421296,-0.0550880225228,0.0319593072094,-0.00785275084922,-0.000666757369354,-0.0240625830477,0.999679389522,0.1,0.0,0.0,0.0,0.0,0.0,0.0,0.1,0.0,0.0,0.0,0.0,0.0,0.0,0.1,0.0,0.0,0.0,0.0,0.0,0.0,0.17,0.0,0.0,0.0,0.0,0.0,0.0,0.17,0.0,0.0,0.0,0.0,0.0,0.0,0.17,0.036305137756,-0.0155178501761,-0.0132354635737,-0.00904425707359,-0.0278435912802,-0.0161775814328,0.05,0.0,0.0,0.0,0.0,0.0,0.0,0.05,0.0,0.0,0.0,0.0,0.0,0.0,0.05,0.0,0.0,0.0,0.0,0.0,0.0,0.09,0.0,0.0,0.0,0.0,0.0,0.0,0.09,0.0,0.0,0.0,0.0,0.0,0.0,0.09
1336386239876673937,86,1336386239876673937,/odom,/base_link,-0.0545070381468,-0.0517896880587,0.0316981994681,-0.00752744594735,-0.000353866048661,-0.0249330890523,0.999660719148,0.1,0.0,0.0,0.0,0.0,0.0,0.0,0.1,0.0,0.0,0.0,0.0,0.0,0.0,0.1,0.0,0.0,0.0,0.0,0.0,0.0,0.17,0.0,0.0,0.0,0.0,0.0,0.0,0.17,0.0,0.0,0.0,0.0,0.0,0.0,0.17,-0.0771468422255,0.0295958771037,-0.00203566379848,0.00638757152955,0.00659913377098,-0.0175021031985,0.05,0.0,0.0,0.0,0.0,0.0,0.0,0.05,0.0,0.0,0.0,0.0,0.0,0.0,0.05,0.0,0.0,0.0,0.0,0.0,0.0,0.09,0.0,0.0,0.0,0.0,0.0,0.0,0.09,0.0,0.0,0.0,0.0,0.0,0.0,0.09
1336386239975910902,87,1336386239975910902,/odom,/base_link,-0.0546144331072,-0.0460549140872,0.0293064022097,-0.00653405749075,-0.00135121663828,-0.0253538770124,0.999656271539,0.1,0.0,0.0,0.0,0.0,0.0,0.0,0.1,0.0,0.0,0.0,0.0,0.0,0.0,0.1,0.0,0.0,0.0,0.0,0.0,0.0,0.17,0.0,0.0,0.0,0.0,0.0,0.0,0.17,0.0,0.0,0.0,0.0,0.0,0.0,0.17,-0.00398737573129,0.0580186387938,-0.0232280545365,0.0205112366026,-0.0195305938402,-0.00863821804124,0.05,0.0,0.0,0.0,0.0,0.0,0.0,0.05,0.0,0.0,0.0,0.0,0.0,0.0,0.05,0.0,0.0,0.0,0.0,0.0,0.0,0.09,0.0,0.0,0.0,0.0,0.0,0.0,0.09,0.0,0.0,0.0,0.0,0.0,0.0,0.09
1336386240075146914,88,1336386240075146914,/odom,/base_link,-0.0596088273329,-0.0462341685716,0.0295160762958,-0.00661382757086,-0.00175105716666,-0.0256125082608,0.999648533488,0.1,0.0,0.0,0.0,0.0,0.0,0.0,0.1,0.0,0.0,0.0,0.0,0.0,0.0,0.1,0.0,0.0,0.0,0.0,0.0,0.0,0.17,0.0,0.0,0.0,0.0,0.0,0.0,0.17,0.0,0.0,0.0,0.0,0.0,0.0,0.17,-0.0501656172512,-0.00438337961662,0.00220826104985,-0.00141088264843,-0.00806251932925,-0.00526509153714,0.05,0.0,0.0,0.0,0.0,0.0,0.0,0.05,0.0,0.0,0.0,0.0,0.0,0.0,0.05,0.0,0.0,0.0,0.0,0.0,0.0,0.09,0.0,0.0,0.0,0.0,0.0,0.0,0.09,0.0,0.0,0.0,0.0,0.0,0.0,0.09
1336386240174383879,89,1336386240174383879,/odom,/base_link,-0.0587079583357,-0.0506951732351,0.0273583899484,-0.00727143564141,-0.00323251378562,-0.0260523792073,0.999628906453,0.1,0.0,0.0,0.0,0.0,0.0,0.0,0.1,0.0,0.0,0.0,0.0,0.0,0.0,0.1,0.0,0.0,0.0,0.0,0.0,0.0,0.17,0.0,0.0,0.0,0.0,0.0,0.0,0.17,0.0,0.0,0.0,0.0,0.0,0.0,0.17,0.0112833771957,-0.0441395231227,-0.0223678849199,-0.012502064409,-0.0301279824314,-0.00904634366025,0.05,0.0,0.0,0.0,0.0,0.0,0.0,0.05,0.0,0.0,0.0,0.0,0.0,0.0,0.05,0.0,0.0,0.0,0.0,0.0,0.0,0.09,0.0,0.0,0.0,0.0,0.0,0.0,0.09,0.0,0.0,0.0,0.0,0.0,0.0,0.09
1336386240273620844,90,1336386240273620844,/odom,/base_link,-0.0591438625344,-0.0470046473809,0.0249149389294,-0.00652200313961,-0.00442582219376,-0.0260532275851,0.999629483812,0.1,0.0,0.0,0.0,0.0,0.0,0.0,0.1,0.0,0.0,0.0,0.0,0.0,0.0,0.1,0.0,0.0,0.0,0.0,0.0,0.0,0.17,0.0,0.0,0.0,0.0,0.0,0.0,0.17,0.0,0.0,0.0,0.0,0.0,0.0,0.17,-0.00649021620967,0.0372594142392,-0.0240456478554,0.0157248789186,-0.0236471043308,-0.000240487836826,0.05,0.0,0.0,0.0,0.0,0.0,0.0,0.05,0.0,0.0,0.0,0.0,0.0,0.0,0.05,0.0,0.0,0.0,0.0,0.0,0.0,0.09,0.0,0.0,0.0,0.0,0.0,0.0,0.09,0.0,0.0,0.0,0.0,0.0,0.0,0.09
1336386240372858047,91,1336386240372858047,/odom,/base_link,-0.0605106924992,-0.0490933364078,0.0242057210927,-0.00670226195201,-0.00551749307843,-0.0259364944304,0.999625897629,0.1,0.0,0.0,0.0,0.0,0.0,0.0,0.1,0.0,0.0,0.0,0.0,0.0,0.0,0.1,0.0,0.0,0.0,0.0,0.0,0.0,0.17,0.0,0.0,0.0,0.0,0.0,0.0,0.17,0.0,0.0,0.0,0.0,0.0,0.0,0.17,-0.0127247041833,-0.0216437476468,-0.00730790918554,-0.00304839816387,-0.0221034073058,0.0022224408493,0.05,0.0,0.0,0.0,0.0,0.0,0.0,0.05,0.0,0.0,0.0,0.0,0.0,0.0,0.05,0.0,0.0,0.0,0.0,0.0,0.0,0.09,0.0,0.0,0.0,0.0,0.0,0.0,0.09,0.0,0.0,0.0,0.0,0.0,0.0,0.09
1336386240472095013,92,1336386240472095013,/odom,/base_link,-0.0644231776655,-0.0496545553655,0.0230358588599,-0.00629801359728,-0.00613539823884,-0.0257495705252,0.999629757226,0.1,0.0,0.0,0.0,0.0,0.0,0.0,0.1,0.0,0.0,0.0,0.0,0.0,0.0,0.1,0.0,0.0,0.0,0.0,0.0,0.0,0.17,0.0,0.0,0.0,0.0,0.0,0.0,0.17,0.0,0.0,0.0,0.0,0.0,0.0,0.17,-0.0392115442258,-0.00753991668835,-0.0114430015924,0.00848838281335,-0.0122619789068,0.00363941595307,0.05,0.0,0.0,0.0,0.0,0.0,0.0,0.05,0.0,0.0,0.0,0.0,0.0,0.0,0.05,0.0,0.0,0.0,0.0,0.0,0.0,0.09,0.0,0.0,0.0,0.0,0.0,0.0,0.09,0.0,0.0,0.0,0.0,0.0,0.0,0.09
1336386240571331978,93,1336386240571331978,/odom,/base_link,-0.0623048234449,-0.0494819888046,0.0202457413454,-0.00579793285537,-0.00763814588386,-0.0255947714321,0.999626405402,0.1,0.0,0.0,0.0,0.0,0.0,0.0,0.1,0.0,0.0,0.0,0.0,0.0,0.0,0.1,0.0,0.0,0.0,0.0,0.0,0.0,0.17,0.0,0.0,0.0,0.0,0.0,0.0,0.17,0.0,0.0,0.0,0.0,0.0,0.0,0.17,0.0208731291269,0.0031821869264,-0.0283438327739,0.0108733589154,-0.030035390941,0.00286431597747,0.05,0.0,0.0,0.0,0.0,0.0,0.0,0.05,0.0,0.0,0.0,0.0,0.0,0.0,0.05,0.0,0.0,0.0,0.0,0.0,0.0,0.09,0.0,0.0,0.0,0.0,0.0,0.0,0.09,0.0,0.0,0.0,0.0,0.0,0.0,0.09
1336386240670567989,94,1336386240670567989,/odom,/base_link,-0.0632865119921,-0.0512511418368,0.0192026818041,-0.00553462556122,-0.00855789206231,-0.025060811675,0.999633976074,0.1,0.0,0.0,0.0,0.0,0.0,0.0,0.1,0.0,0.0,0.0,0.0,0.0,0.0,0.1,0.0,0.0,0.0,0.0,0.0,0.0,0.17,0.0,0.0,0.0,0.0,0.0,0.0,0.17,0.0,0.0,0.0,0.0,0.0,0.0,0.17,-0.0091313011805,-0.0181925259352,-0.0105744580137,0.00586222741542,-0.0184550242829,0.0106132912076,0.05,0.0,0.0,0.0,0.0,0.0,0.0,0.05,0.0,0.0,0.0,0.0,0.0,0.0,0.05,0.0,0.0,0.0,0.0,0.0,0.0,0.09,0.0,0.0,0.0,0.0,0.0,0.0,0.09,0.0,0.0,0.0,0.0,0.0,0.0,0.09
1336386240769804955,95,1336386240769804955,/odom,/base_link,-0.0644814673758,-0.0523979484325,0.0178797601365,-0.00515068742717,-0.0091971528823,-0.0247412662863,0.999638310861,0.1,0.0,0.0,0.0,0.0,0.0,0.0,0.1,0.0,0.0,0.0,0.0,0.0,0.0,0.1,0.0,0.0,0.0,0.0,0.0,0.0,0.17,0.0,0.0,0.0,0.0,0.0,0.0,0.17,0.0,0.0,0.0,0.0,0.0,0.0,0.17,-0.0116784181822,-0.0120036850138,-0.0132583131211,0.00811344170033,-0.0127197877182,0.00630235560983,0.05,0.0,0.0,0.0,0.0,0.0,0.0,0.05,0.0,0.0,0.0,0.0,0.0,0.0,0.05,0.0,0.0,0.0,0.0,0.0,0.0,0.09,0.0,0.0,0.0,0.0,0.0,0.0,0.09,0.0,0.0,0.0,0.0,0.0,0.0,0.09
1336386240869042873,96,1336386240869042873,/odom,/base_link,-0.0636582237632,-0.048531956987,0.0148372040232,-0.00383205147123,-0.0100391556374,-0.0242550901596,0.999648048734,0.1,0.0,0.0,0.0,0.0,0.0,0.0,0.1,0.0,0.0,0.0,0.0,0.0,0.0,0.1,0.0,0.0,0.0,0.0,0.0,0.0,0.17,0.0,0.0,0.0,0.0,0.0,0.0,0.17,0.0,0.0,0.0,0.0,0.0,0.0,0.17,0.00578923851361,0.0396199292772,-0.0303839266515,0.0270766145647,-0.0163544026002,0.00946768814685,0.05,0.0,0.0,0.0,0.0,0.0,0.0,0.05,0.0,0.0,0.0,0.0,0.0,0.0,0.05,0.0,0.0,0.0,0.0,0.0,0.0,0.09,0.0,0.0,0.0,0.0,0.0,0.0,0.09,0.0,0.0,0.0,0.0,0.0,0.0,0.09
1336386240968279839,97,1336386240968279839,/odom,/base_link,-0.0631175027365,-0.0523050952292,0.0139863230065,-0.00383276355673,-0.0107379412169,-0.0239166208269,0.999648939273,0.1,0.0,0.0,0.0,0.0,0.0,0.0,0.1,0.0,0.0,0.0,0.0,0.0,0.0,0.1,0.0,0.0,0.0,0.0,0.0,0.0,0.17,0.0,0.0,0.0,0.0,0.0,0.0,0.17,0.0,0.0,0.0,0.0,0.0,0.0,0.17,0.00710844267957,-0.0376494830749,-0.00899042004531,0.000395792697509,-0.0141045238056,0.00676564836271,0.05,0.0,0.0,0.0,0.0,0.0,0.0,0.05,0.0,0.0,0.0,0.0,0.0,0.0,0.05,0.0,0.0,0.0,0.0,0.0,0.0,0.09,0.0,0.0,0.0,0.0,0.0,0.0,0.09,0.0,0.0,0.0,0.0,0.0,0.0,0.09
1336386241067515850,98,1336386241067515850,/odom,/base_link,-0.0611943336697,-0.0490003117769,0.0118670298424,-0.00256800782649,-0.0114156749849,-0.0232416464545,0.99966139946,0.1,0.0,0.0,0.0,0.0,0.0,0.0,0.1,0.0,0.0,0.0,0.0,0.0,0.0,0.1,0.0,0.0,0.0,0.0,0.0,0.0,0.17,0.0,0.0,0.0,0.0,0.0,0.0,0.17,0.0,0.0,0.0,0.0,0.0,0.0,0.17,0.0173010602977,0.0343441286849,-0.021490740858,0.0259546296663,-0.0130940501383,0.0132785916019,0.05,0.0,0.0,0.0,0.0,0.0,0.0,0.05,0.0,0.0,0.0,0.0,0.0,0.0,0.05,0.0,0.0,0.0,0.0,0.0,0.0,0.09,0.0,0.0,0.0,0.0,0.0,0.0,0.09,0.0,0.0,0.0,0.0,0.0,0.0,0.09
1336386241166754007,99,1336386241166754007,/odom,/base_link,-0.0631923413073,-0.0517670506302,0.0124364814858,-0.0023544936937,-0.0112819130579,-0.0233120532785,0.999661804296,0.1,0.0,0.0,0.0,0.0,0.0,0.0,0.1,0.0,0.0,0.0,0.0,0.0,0.0,0.1,0.0,0.0,0.0,0.0,0.0,0.0,0.17,0.0,0.0,0.0,0.0,0.0,0.0,0.17,0.0,0.0,0.0,0.0,0.0,0.0,0.17,-0.0186809399384,-0.028812451065,0.00603584000796,0.00422277672987,0.00279861068914,-0.00146047618104,0.05,0.0,0.0,0.0,0.0,0.0,0.0,0.05,0.0,0.0,0.0,0.0,0.0,0.0,0.05,0.0,0.0,0.0,0.0,0.0,0.0,0.09,0.0,0.0,0.0,0.0,0.0,0.0,0.09,0.0,0.0,0.0,0.0,0.0,0.0,0.09
